~Version
 VERS              .         2.0                           : CWLS LOG ASCII STANDARD - VERSION 2.0
 WRAP              .         NO                            : ONE LINE PER DEPTH STEP
 DLM               .         SPACE                         : DELIMITING CHARACTER(SPACE TAB OR COMMA)
~Well Information
#_______________________________________________________________________________
#
#PARAMETER_NAME    .UNIT     VALUE                         : DESCRIPTION
#_______________________________________________________________________________
STRT               .M        30                            : First reference value
STOP               .M        3440                          : Last reference value
STEP               .M        0.125                         : Step increment
NULL               .         -9999                         : Missing value
COMP               .         	                           : Company
WELL               .         trial-1                       : Well name
FLD                .         trial                         : Field
LOC                .         UNKNOWN                       : Location
CNTY               .                             		   : County
STAT               .                              		   : State
CTRY               .                                 	   : Country
SRVC               .         UNKNOWN                       : Service Company
DATE               .         UNKNOWN                       : Date
UWI                .         20570423                      : Unique Well ID
YCOORD             .                 				       : SURFACE Y
LON                .                          			   : LONGITUDE
XCOORD             .                 				       : SURFACE X
LAT                .         		                       : LATITUDE
ELEV_TYPE          .         KB                            : ELEV TYPE
ELEV               .M        7.7600                        : SURFACE ELEV
group              .         trial                       : 
ORIGINALWELLNAME   .         trial-1                     : 
~Parameter Information Block
#_______________________________________________________________________________
#
#PARAMETER_NAME    .UNIT     VALUE                         : DESCRIPTION
#_______________________________________________________________________________
SET                .         Curvas_Basicas_Editadas_OW    : 
TLFamily_CALI_Edit .         Caliper                       : 
TLFamily_DT_Edit   .         Compressional Slowness        : 
TLFamily_GR_Edit   .         Gamma Ray                     : 
TLFamily_RM_Edit   .         Mud Resistivity               : 
TLFamily_DEPTH     .         Measured Depth                : 
TLFamily_SP_Edit   .         Spontaneous Potential         : 
TLFamily_RT_Edit   .         Formation Resistivity         : 
TLFamily_NPHI_Edit .         Neutron Porosity              : 
~Curve Information
#_______________________________________________________________________________
#
#LOGNAME           .UNIT     LOG_ID                        : DESCRIPTION
#_______________________________________________________________________________
DEPTH              .M                                      : Measured Depth 
CALI_Edit          .inches                                 : v1 
DT_Edit            .us/ft                                  : v1 
GR_Edit            .API                                    : v1 
NPHI_Edit          .v/v_decimal                            : v1 
RM_Edit            .ohm.m                                  : v1 
RT_Edit            .ohm.m                                  : v1 
SP_Edit            .mV                                     : v1 
~Ascii
# ...
2145.75    16.9678    104.4187   -9999      -9999      1.3689     0.6683     -32.7981  
2145.875   16.9691    105.1227   -9999      -9999      1.2918     0.6288     -30.5227  
2146       16.9705    105.9308   -9999      -9999      1.2196     0.5901     -28.9024  
2146.125   16.9719    106.743    -9999      -9999      1.1688     0.5543     -27.3625  
2146.25    16.9733    107.3379   -9999      -9999      1.1483     0.5225     -25.9255  
2146.375   16.9747    107.238    -9999      -9999      1.1565     0.4977     -24.4131  
2146.5     16.9762    106.9052   -9999      -9999      1.1693     0.4823     -22.8683  
2146.625   16.978     106.7189   -9999      -9999      1.1798     0.4761     -21.2347  
2146.75    16.9801    106.6649   -9999      -9999      1.1822     0.4773     -19.636   
2146.875   16.9823    106.4792   -9999      -9999      1.1712     0.483      -18.3172  
2147       16.9845    105.7674   -9999      -9999      1.14       0.4898     -17.7201  
2147.125   16.9867    104.7966   -9999      -9999      1.1012     0.4956     -17.418   
2147.25    16.9889    103.679    -9999      -9999      1.0769     0.5006     -17.0597  
2147.375   16.9912    102.4519   -9999      -9999      1.073      0.5041     -16.5838  
2147.5     16.9935    101.2028   -9999      -9999      1.0878     0.5051     -15.9265  
2147.625   16.9959    100.0816   -9999      -9999      1.113      0.503      -15.0364  
2147.75    16.9983    99.2687    -9999      -9999      1.1419     0.5022     -15.226   
2147.875   17.0004    99.0937    -9999      -9999      1.1756     0.5108     -16.1413  
2148       17.0014    99.9482    -9999      -9999      1.213      0.5299     -17.5348  
2148.125   17.0015    101.6111   -9999      -9999      1.251      0.5571     -19.2446  
2148.25    17.001     103.5319   -9999      -9999      1.2865     0.5886     -21.1245  
2148.375   17.0001    105.0045   -9999      -9999      1.3185     0.62       -22.9953  
2148.5     16.9975    106.28     -9999      -9999      1.3498     0.6345     -24.488   
2148.625   16.9945    107.615    -9999      -9999      1.3793     0.6297     -25.3757  
2148.75    16.9915    108.9752   -9999      -9999      1.4044     0.6135     -25.7565  
2148.875   16.9885    110.3304   -9999      -9999      1.424      0.5935     -25.8129  
2149       16.9858    111.6966   -9999      -9999      1.4375     0.5757     -25.7589  
2149.125   16.9842    113.2767   -9999      -9999      1.4367     0.5659     -25.7596  
2149.25    16.9835    114.8595   -9999      -9999      1.3942     0.5711     -25.8436  
2149.375   16.9831    116.0205   -9999      -9999      1.3086     0.5894     -26.3152  
2149.5     16.9827    116.0104   -9999      -9999      1.1961     0.6158     -27.4772  
2149.625   16.9823    114.5734   -9999      -9999      1.0774     0.6451     -29.5451  
2149.75    16.9819    112.8244   -9999      -9999      0.9682     0.6738     -32.5689  
2149.875   16.9813    111.2715   -9999      -9999      0.9131     0.7016     -35.6048  
2150       16.9805    109.5723   -9999      -9999      0.8921     0.7293     -41.398   
2150.125   16.9798    107.3544   -9999      -9999      0.8718     0.7561     -47.9599  
2150.25    16.979     104.5307   -9999      -9999      0.8417     0.7801     -54.0514  
2150.375   16.9782    101.4412   -9999      -9999      0.812      0.7982     -59.1253  
2150.5     16.9775    99.97      -9999      -9999      0.8025     0.8056     -61.3436  
2150.625   16.977     99.7878    -9999      -9999      0.8079     0.799      -62.8633  
2150.75    16.9766    99.465     -9999      -9999      0.8258     0.7805     -64.4367  
2150.875   16.9764    99.3859    -9999      -9999      0.8562     0.753      -66.2851  
2151       16.9761    100.401    -9999      -9999      0.8979     0.7199     -67.5981  
2151.125   16.9758    103.4174   -9999      -9999      0.9475     0.6834     -65.9906  
2151.25    16.9756    104.7878   -9999      -9999      1.0048     0.6479     -58.7854  
2151.375   16.9753    105.6667   -9999      -9999      1.0653     0.6145     -52.9338  
2151.5     16.975     106.5071   -9999      -9999      1.1214     0.5827     -47.9977  
2151.625   16.9747    107.4223   -9999      -9999      1.1679     0.5515     -43.2832  
2151.75    16.9744    108.1963   -9999      -9999      1.2017     0.5206     -38.4227  
2151.875   16.974     108.1047   -9999      -9999      1.2202     0.495      -35.2702  
2152       16.9737    107.5541   -9999      -9999      1.2189     0.4869     -33.3366  
2152.125   16.9735    107.6921   -9999      -9999      1.1946     0.4989     -31.9717  
2152.25    16.9737    108.6818   -9999      -9999      1.1535     0.5265     -31.5001  
2152.375   16.9746    109.9408   -9999      -9999      1.111      0.5616     -32.2936  
2152.5     16.976     110.1449   -9999      -9999      1.0905     0.5934     -34.5498  
2152.625   16.9776    109.001    -9999      -9999      1.1154     0.611      -38.3578  
2152.75    16.979     108.0637   -9999      -9999      1.141      0.6192     -42.1846  
2152.875   16.98      107.5854   -9999      -9999      1.1457     0.622      -45.3187  
2153       16.9807    107.3046   -9999      -9999      1.1357     0.6223     -47.481   
2153.125   16.9812    106.7585   -9999      -9999      1.1275     0.6218     -48.8504  
2153.25    16.9818    105.6366   -9999      -9999      1.1238     0.6212     -50.4125  
2153.375   16.9823    104.8778   -9999      -9999      1.1015     0.6204     -52.8885  
2153.5     16.9827    104.7535   -9999      -9999      1.0922     0.6238     -53.4414  
2153.625   16.9832    105.0921   -9999      -9999      1.1091     0.6347     -50.6347  
2153.75    16.9835    105.6293   -9999      -9999      1.152      0.6535     -45.6514  
2153.875   16.9839    106.0869   -9999      -9999      1.2069     0.6774     -42.1131  
2154       16.9843    106.1776   -9999      -9999      1.2508     0.6999     -40.5887  
2154.125   16.9847    105.617    -9999      -9999      1.2587     0.7157     -39.6148  
2154.25    16.9848    105.0421   -9999      -9999      1.2343     0.723      -39.0888  
2154.375   16.9847    104.718    -9999      -9999      1.1897     0.7226     -38.9097  
2154.5     16.9846    104.6057   -9999      -9999      1.1387     0.7167     -39.0198  
2154.625   16.9844    104.1961   -9999      -9999      1.0885     0.7077     -39.5313  
2154.75    16.9842    103.3703   -9999      -9999      1.0429     0.6962     -40.2682  
2154.875   16.9843    102.9606   -9999      -9999      1.0071     0.6887     -41.2964  
2155       16.9847    103.0449   -9999      -9999      0.9869     0.6848     -42.4402  
2155.125   16.9853    103.3794   -9999      -9999      0.9846     0.68       -43.4094  
2155.25    16.986     103.5119   -9999      -9999      0.9982     0.6676     -43.8118  
2155.375   16.9867    103.1387   -9999      -9999      1.0194     0.6494     -42.7662  
2155.5     16.9874    102.7737   -9999      -9999      1.0362     0.6301     -40.3996  
2155.625   16.9881    102.5448   -9999      -9999      1.0401     0.6081     -37.342   
2155.75    16.9888    102.4019   -9999      -9999      1.031      0.5835     -33.2635  
2155.875   16.9894    102.3083   -9999      -9999      1.0153     0.558      -28.2703  
2156       16.9898    102.3664   -9999      -9999      1.0069     0.5347     -23.8203  
2156.125   16.9896    103.0401   -9999      -9999      1.0236     0.5245     -21.9956  
2156.25    16.9894    103.9047   -9999      -9999      1.061      0.5308     -20.8435  
2156.375   16.9892    104.6146   -9999      -9999      1.1099     0.5492     -19.7402  
2156.5     16.989     104.8383   -9999      -9999      1.1628     0.5703     -18.518   
2156.625   16.9888    104.3446   -9999      -9999      1.2146     0.5826     -17.2424  
2156.75    16.9885    103.2544   -9999      -9999      1.265      0.5779     -15.3979  
2156.875   16.9883    102.4008   -9999      -9999      1.2823     0.5676     -13.7738  
2157       16.988     102.1472   -9999      -9999      1.2658     0.5578     -12.6278  
