~Version
 VERS              .         2.0                           : CWLS LOG ASCII STANDARD - VERSION 2.0
 WRAP              .         NO                            : ONE LINE PER DEPTH STEP
 DLM               .         SPACE                         : DELIMITING CHARACTER(SPACE TAB OR COMMA)
~Well Information
#_______________________________________________________________________________
#
#PARAMETER_NAME    .UNIT     VALUE                         : DESCRIPTION
#_______________________________________________________________________________
STRT               .M        30                            : First reference value
STOP               .M        3440                          : Last reference value
STEP               .M        0.125                         : Step increment
NULL               .         -9999                         : Missing value
COMP               .         	                           : Company
WELL               .         trial-1                       : Well name
FLD                .         trial                         : Field
LOC                .         UNKNOWN                       : Location
CNTY               .                             		   : County
STAT               .                              		   : State
CTRY               .                                 	   : Country
SRVC               .         UNKNOWN                       : Service Company
DATE               .         UNKNOWN                       : Date
UWI                .         20570423                      : Unique Well ID
YCOORD             .                 				       : SURFACE Y
LON                .                          			   : LONGITUDE
XCOORD             .                 				       : SURFACE X
LAT                .         		                       : LATITUDE
ELEV_TYPE          .         KB                            : ELEV TYPE
ELEV               .M        7.7600                        : SURFACE ELEV
group              .         trial                       : 
ORIGINALWELLNAME   .         trial-1                     : 
~Parameter Information Block
#_______________________________________________________________________________
#
#PARAMETER_NAME    .UNIT     VALUE                         : DESCRIPTION
#_______________________________________________________________________________
SET                .         Curvas_Basicas_Editadas_OW    : 
TLFamily_CALI_Edit .         Caliper                       : 
TLFamily_DT_Edit   .         Compressional Slowness        : 
TLFamily_GR_Edit   .         Gamma Ray                     : 
TLFamily_RM_Edit   .         Mud Resistivity               : 
TLFamily_DEPTH     .         Measured Depth                : 
TLFamily_SP_Edit   .         Spontaneous Potential         : 
TLFamily_RT_Edit   .         Formation Resistivity         : 
TLFamily_NPHI_Edit .         Neutron Porosity              : 
~Curve Information
#_______________________________________________________________________________
#
#LOGNAME           .UNIT     LOG_ID                        : DESCRIPTION
#_______________________________________________________________________________
DEPTH              .M                                      : Measured Depth 
CALI_Edit          .inches                                 : v1 
DT_Edit            .us/ft                                  : v1 
GR_Edit            .API                                    : v1 
NPHI_Edit          .v/v_decimal                            : v1 
RM_Edit            .ohm.m                                  : v1 
RT_Edit            .ohm.m                                  : v1 
SP_Edit            .mV                                     : v1 
~Ascii
# ...
2327.75    16.8822    95.1766    -9999      -9999      1.5317     0.8957     -50.5884  
2327.875   16.8824    95.2031    -9999      -9999      1.4889     0.8812     -53.4688  
2328       16.8832    95.497     -9999      -9999      1.4632     0.8564     -55.7554  
2328.125   16.8846    96.3411    -9999      -9999      1.459      0.8249     -57.2097  
2328.25    16.8862    97.6092    -9999      -9999      1.4779     0.7896     -56.4991  
2328.375   16.8878    98.7993    -9999      -9999      1.5185     0.7524     -51.5657  
2328.5     16.8894    99.1134    -9999      -9999      1.5703     0.7116     -42.5248  
2328.625   16.8924    98.6345    -9999      -9999      1.6223     0.666      -29.4459  
2328.75    16.9       97.7073    -9999      -9999      1.6743     0.6179     -19.8978  
2328.875   16.9116    96.4899    -9999      -9999      1.7256     0.5678     -14.5588  
2329       16.9257    95.1612    -9999      -9999      1.7721     0.516      -11.8191  
2329.125   16.9406    94.0527    -9999      -9999      1.8023     0.4624     -9.9021   
2329.25    16.9575    95.7621    -9999      -9999      1.7817     0.4101     -7.8974   
2329.375   16.9749    100.0302   -9999      -9999      1.7056     0.3607     -6.0405   
2329.5     16.9924    104.5648   -9999      -9999      1.5967     0.3142     -4.2593   
2329.625   17.009     107.9704   -9999      -9999      1.4767     0.2711     -2.7051   
2329.75    17.0227    109.9401   -9999      -9999      1.361      0.2324     -1.6218   
2329.875   17.0266    111.4013   -9999      -9999      1.2417     0.2027     -0.7953   
2330       17.0225    112.4754   -9999      -9999      1.1333     0.1967     -0.4749   
2330.125   17.0145    112.5876   -9999      -9999      1.0669     0.2257     -1.0989   
2330.25    17.0043    111.5372   -9999      -9999      1.0572     0.2887     -2.8908   
2330.375   16.9931    109.5221   -9999      -9999      1.1028     0.3753     -6.074    
2330.5     16.9818    107.2152   -9999      -9999      1.1827     0.466      -11.0026  
2330.625   16.9728    105.0287   -9999      -9999      1.2726     0.545      -17.4269  
2330.75    16.9682    102.5924   -9999      -9999      1.3641     0.6291     -36.0824  
2330.875   16.9657    99.0056    -9999      -9999      1.4492     0.7243     -50.1218  
2331       16.9639    94.3952    -9999      -9999      1.5186     0.8305     -55.82    
2331.125   16.9622    89.6482    -9999      -9999      1.5623     0.9437     -58.0973  
2331.25    16.9606    86.2162    -9999      -9999      1.5669     1.06       -61.863   
2331.375   16.9594    84.696     -9999      -9999      1.5223     1.1797     -66.1385  
2331.5     16.9589    84.4134    -9999      -9999      1.4489     1.299      -69.6557  
2331.625   16.9586    84.9503    -9999      -9999      1.3646     1.4059     -72.7101  
2331.75    16.9584    85.8639    -9999      -9999      1.2867     1.4854     -75.6365  
2331.875   16.9582    86.6975    -9999      -9999      1.2298     1.5224     -78.4167  
2332       16.9584    86.6263    -9999      -9999      1.2173     1.5104     -79.8953  
2332.125   16.9594    85.8482    -9999      -9999      1.2295     1.4818     -80.9559  
2332.25    16.9609    84.9463    -9999      -9999      1.2538     1.4658     -81.6279  
2332.375   16.9625    84.5137    -9999      -9999      1.2846     1.4818     -81.918   
2332.5     16.9643    84.9984    -9999      -9999      1.3191     1.5348     -81.7959  
2332.625   16.966     86.4095    -9999      -9999      1.3536     1.5982     -81.0757  
2332.75    16.9677    87.976     -9999      -9999      1.3847     1.6311     -79.3755  
2332.875   16.9694    89.3096    -9999      -9999      1.4144     1.629      -77.2556  
2333       16.9714    90.4421    -9999      -9999      1.4342     1.5878     -75.0279  
2333.125   16.974     91.444     -9999      -9999      1.4299     1.5054     -72.6958  
2333.25    16.9776    92.3727    -9999      -9999      1.3851     1.3828     -69.9172  
2333.375   16.9814    93.2773    -9999      -9999      1.3106     1.2306     -65.8678  
2333.5     16.9854    94.1519    -9999      -9999      1.2769     1.0866     -61.4252  
2333.625   16.9893    94.879     -9999      -9999      1.286      0.9669     -49.7115  
2333.75    16.9931    95.3225    -9999      -9999      1.3181     0.8735     -36.0521  
2333.875   16.997     95.4075    -9999      -9999      1.349      0.7991     -27.3533  
2334       17.0008    95.2268    -9999      -9999      1.3657     0.7292     -22.919   
2334.125   17.0047    95.6512    -9999      -9999      1.3691     0.6574     -19.1625  
2334.25    17.0085    97.0916    -9999      -9999      1.3551     0.5889     -14.706   
2334.375   17.0118    98.6801    -9999      -9999      1.3126     0.5243     -10.2284  
2334.5     17.0142    99.6163    -9999      -9999      1.2327     0.4617     -6.5378   
2334.625   17.0157    99.4278    -9999      -9999      1.1121     0.3984     -4.3857   
2334.75    17.0167    98.762     -9999      -9999      0.9655     0.3346     -4.8662   
2334.875   17.0178    98.1638    -9999      -9999      0.8353     0.2817     -6.5518   
2335       17.0189    97.8258    -9999      -9999      0.7226     0.2419     -8.1883   
2335.125   17.02      97.7021    -9999      -9999      0.6239     0.2122     -9.0867   
2335.25    17.021     97.6238    -9999      -9999      0.5454     0.1897     -8.9636   
2335.375   17.0222    97.3232    -9999      -9999      0.5159     0.1766     -8.0607   
2335.5     17.0231    96.6321    -9999      -9999      0.5741     0.1852     -7.6014   
2335.625   17.0236    95.8993    -9999      -9999      0.6963     0.2099     -7.8013   
2335.75    17.0236    95.1905    -9999      -9999      0.8589     0.246      -8.2873   
2335.875   17.0233    94.5113    -9999      -9999      1.0278     0.289      -8.5179   
2336       17.0231    93.8424    -9999      -9999      1.1571     0.3343     -8.1393   
2336.125   17.0227    93.2661    -9999      -9999      1.1484     0.3726     -8.3518   
2336.25    17.0224    92.7523    -9999      -9999      1.0077     0.3904     -9.825    
2336.375   17.0221    92.1684    -9999      -9999      0.8521     0.387      -11.9846  
2336.5     17.0219    91.3504    -9999      -9999      0.718      0.3681     -14.5562  
2336.625   17.0215    90.2058    -9999      -9999      0.6133     0.3416     -16.5067  
2336.75    17.021     88.7839    -9999      -9999      0.5242     0.3167     -15.7092  
2336.875   17.0194    87.2151    -9999      -9999      0.4669     0.3009     -12.7134  
2337       17.0164    85.1906    -9999      -9999      0.4495     0.3023     -10.883   
2337.125   17.0127    83.9718    -9999      -9999      0.458      0.3204     -10.58    
2337.25    17.0088    84.0187    -9999      -9999      0.4817     0.3457     -11.5484  
2337.375   17.0049    85.1478    -9999      -9999      0.5127     0.3654     -13.1984  
2337.5     17.001     86.5976    -9999      -9999      0.5453     0.3715     -15.0845  
2337.625   16.9971    88.2191    -9999      -9999      0.5739     0.3707     -16.8488  
2337.75    16.9932    90.4505    -9999      -9999      0.5816     0.3614     -15.487   
2337.875   16.9892    93.8489    -9999      -9999      0.5533     0.3387     -13.9048  
2338       16.9853    98.6887    -9999      -9999      0.4895     0.3027     -13.9395  
2338.125   16.9812    104.7692   -9999      -9999      0.41       0.2609     -14.9539  
2338.25    16.9771    109.856    -9999      -9999      0.352      0.235      -15.7631  
2338.375   16.973     112.9731   -9999      -9999      0.3173     0.2306     -16.7758  
2338.5     16.9689    115.0228   -9999      -9999      0.3068     0.245      -19.681   
2338.625   16.9648    116.0012   -9999      -9999      0.3191     0.2759     -24.0785  
2338.75    16.9607    115.6816   -9999      -9999      0.3509     0.323      -29.1004  
2338.875   16.9572    114.2198   -9999      -9999      0.3997     0.3949     -35.2505  
2339       16.9547    112.0508   -9999      -9999      0.4848     0.5066     -42.0069  
