~Version
 VERS              .         2.0                           : CWLS LOG ASCII STANDARD - VERSION 2.0
 WRAP              .         NO                            : ONE LINE PER DEPTH STEP
 DLM               .         SPACE                         : DELIMITING CHARACTER(SPACE TAB OR COMMA)
~Well Information
#_______________________________________________________________________________
#
#PARAMETER_NAME    .UNIT     VALUE                         : DESCRIPTION
#_______________________________________________________________________________
STRT               .M        30                            : First reference value
STOP               .M        3440                          : Last reference value
STEP               .M        0.125                         : Step increment
NULL               .         -9999                         : Missing value
COMP               .         	                           : Company
WELL               .         trial-1                       : Well name
FLD                .         trial                         : Field
LOC                .         UNKNOWN                       : Location
CNTY               .                             		   : County
STAT               .                              		   : State
CTRY               .                                 	   : Country
SRVC               .         UNKNOWN                       : Service Company
DATE               .         UNKNOWN                       : Date
UWI                .         20570423                      : Unique Well ID
YCOORD             .                 				       : SURFACE Y
LON                .                          			   : LONGITUDE
XCOORD             .                 				       : SURFACE X
LAT                .         		                       : LATITUDE
ELEV_TYPE          .         KB                            : ELEV TYPE
ELEV               .M        7.7600                        : SURFACE ELEV
group              .         trial                       : 
ORIGINALWELLNAME   .         trial-1                     : 
~Parameter Information Block
#_______________________________________________________________________________
#
#PARAMETER_NAME    .UNIT     VALUE                         : DESCRIPTION
#_______________________________________________________________________________
SET                .         Curvas_Basicas_Editadas_OW    : 
TLFamily_CALI_Edit .         Caliper                       : 
TLFamily_DT_Edit   .         Compressional Slowness        : 
TLFamily_GR_Edit   .         Gamma Ray                     : 
TLFamily_RM_Edit   .         Mud Resistivity               : 
TLFamily_DEPTH     .         Measured Depth                : 
TLFamily_SP_Edit   .         Spontaneous Potential         : 
TLFamily_RT_Edit   .         Formation Resistivity         : 
TLFamily_NPHI_Edit .         Neutron Porosity              : 
~Curve Information
#_______________________________________________________________________________
#
#LOGNAME           .UNIT     LOG_ID                        : DESCRIPTION
#_______________________________________________________________________________
DEPTH              .M                                      : Measured Depth 
CALI_Edit          .inches                                 : v1 
DT_Edit            .us/ft                                  : v1 
GR_Edit            .API                                    : v1 
NPHI_Edit          .v/v_decimal                            : v1 
RM_Edit            .ohm.m                                  : v1 
RT_Edit            .ohm.m                                  : v1 
SP_Edit            .mV                                     : v1 
~Ascii
# ...
860.375    20.9335    118.5354   68.4795    0.0166     0.4589     0.3707     -68.7925  
860.5      20.9268    118.5153   70.6331    0.0147     0.5083     0.4267     -65.0786  
860.625    20.902     118.5641   72.7624    0.0156     0.5591     0.4997     -59.2627  
860.75     20.8535    118.5604   74.4338    0.019      0.6139     0.5729     -50.6657  
860.875    20.7823    119.1952   75.2257    0.0232     0.6785     0.6445     -42.1761  
861        20.7135    120.2498   75.2996    0.0279     0.7483     0.7146     -28.4437  
861.125    20.6672    121.3921   74.6918    0.0328     0.8208     0.783      -16.407   
861.25     20.6456    122.4151   73.6357    0.0371     0.8946     0.8502     -9.9868   
861.375    20.6358    123.2604   72.549     0.0396     0.9695     0.917      -9.2104   
861.5      20.6276    123.9924   72.1789    0.0368     1.0446     0.982      -10.0672  
861.625    20.6201    124.7554   72.3904    0.0353     1.1151     1.0401     -12.0188  
861.75     20.6141    125.5397   72.8464    0.0357     1.1802     1.0702     -14.1011  
861.875    20.609     126.3011   73.3211    0.038      1.2417     1.0505     -15.7625  
862        20.6041    126.9829   73.6995    0.041      1.3007     0.9821     -16.9189  
862.125    20.599     127.5246   74.0486    0.0429     1.3569     0.9071     -18.2102  
862.25     20.5938    127.7302   73.8952    0.0389     1.4057     0.844      -20.1065  
862.375    20.5885    127.5134   72.7204    0.0337     1.4527     0.7923     -22.5627  
862.5      20.5832    127.0926   70.6125    0.0297     1.4886     0.7481     -26.2311  
862.625    20.5779    126.7274   67.8435    0.0276     1.5007     0.709      -30.9283  
862.75     20.5725    126.6329   64.8664    0.0271     1.4772     0.6765     -35.6873  
862.875    20.567     126.7517   62.6216    0.0261     1.4199     0.6625     -38.2159  
863        20.5616    126.9547   61.8278    0.0201     1.3416     0.6546     -41.2032  
863.125    20.5563    127.2723   61.1572    0.012      1.2464     0.6519     -45.9782  
863.25     20.5516    127.6581   59.9801    0.0053     1.1354     0.6592     -52.4166  
863.375    20.5475    127.9909   58.3972    0.0025     1.0155     0.6749     -59.185   
863.5      20.5435    128.0777   57.4024    0.0028     0.9028     0.6861     -63.7401  
863.625    20.5398    127.2583   58.3688    0.0076     0.8976     0.6708     -66.4604  
863.75     20.5376    125.8644   60.4777    0.0139     0.9892     0.6511     -68.2002  
863.875    20.5373    124.3983   63.0675    0.0202     1.1131     0.6227     -68.7096  
864        20.5387    123.1398   65.619     0.0248     1.228      0.5874     -68.5397  
864.125    20.5423    122.1719   67.7584    0.0262     1.3059     0.5497     -68.6406  
864.25     20.5519    121.3432   69.2726    0.0215     1.3168     0.512      -69.9062  
864.375    20.5631    120.7867   70.0549    0.0127     1.2416     0.4709     -71.6718  
864.5      20.5745    120.9272   70.329     0.0058     1.1253     0.4292     -73.2526  
864.625    20.5855    121.8256   70.1681    0.002      0.9888     0.3917     -73.989   
864.75     20.5957    123.3534   69.6322    0.0009     0.8459     0.3596     -73.7527  
864.875    20.6054    125.238    68.7731    0.0011     0.7041     0.3297     -73.0676  
865        20.6151    127.4046   67.7351    0.0034     0.5875     0.3014     -72.9118  
865.125    20.6245    129.2766   67.0605    0.0087     0.5036     0.272      -73.2742  
865.25     20.633     130.6872   66.9165    0.0179     0.4518     0.2488     -73.7852  
865.375    20.6396    131.5991   67.0661    0.0301     0.4329     0.2393     -74.265   
865.5      20.644     132.0014   67.2079    0.0432     0.4435     0.2491     -74.5799  
865.625    20.6475    131.7383   67.3429    0.0531     0.4714     0.2811     -74.5138  
865.75     20.6467    130.7061   68.1982    0.0581     0.5051     0.3174     -73.6298  
865.875    20.6382    129.2899   69.678     0.0602     0.5423     0.3613     -72.2234  
866        20.6263    127.7906   71.4634    0.0607     0.582      0.4096     -70.3945  
866.125    20.6139    126.5291   73.1884    0.0613     0.6241     0.4622     -68.1942  
866.25     20.6015    125.8303   74.4994    0.0638     0.6704     0.5227     -65.5686  
866.375    20.5893    126.2706   75.0184    0.0685     0.7296     0.5884     -61.7149  
866.5      20.5777    127.1845   74.3978    0.0715     0.8006     0.6563     -51.5318  
866.625    20.5684    127.9432   72.8392    0.0704     0.8765     0.7266     -26.2301  
866.75     20.5613    128.0069   70.734     0.0651     0.9551     0.7986     -5.019    
866.875    20.5553    126.9704   68.5219    0.0565     1.035      0.871      -2.1657   
867        20.5497    124.6464   66.5584    0.0466     1.1149     0.94       -2.8913   
867.125    20.5456    122.2644   65.6224    0.0358     1.1833     1.0028     -4.3473   
867.25     20.5451    120.641    65.7053    0.0245     1.2198     1.0608     -5.5411   
867.375    20.5481    119.7213   66.2164    0.0152     1.2177     1.1162     -5.3826   
867.5      20.553     119.6032   66.4309    0.0103     1.1836     1.1554     -4.1721   
867.625    20.5568    120.613    65.655     0.0114     1.1357     1.151      -3.0896   
867.75     20.5553    123.9417   63.4905    0.0168     1.1151     1.0422     -2.3749   
867.875    20.5524    128.6314   60.8617    0.0236     1.1455     0.9267     -3.1671   
868        20.5493    132.2693   58.3654    0.0317     1.2004     0.8267     -5.9757   
868.125    20.5469    134.3831   56.328     0.0408     1.2643     0.7367     -10.0168  
868.25     20.5455    135.3045   55.0477    0.0496     1.3259     0.6517     -14.7671  
868.375    20.5445    135.9649   54.8385    0.0553     1.3801     0.578      -20.6861  
868.5      20.5416    136.2708   55.8956    0.055      1.4084     0.5506     -24.7552  
868.625    20.5383    135.8232   57.6967    0.0513     1.4045     0.5361     -28.186   
868.75     20.5349    134.5689   59.988     0.0461     1.3697     0.5461     -31.1269  
868.875    20.5314    132.6454   62.2931    0.0407     1.3098     0.5782     -32.5531  
869        20.5279    130.3578   64.0819    0.036      1.2339     0.6218     -30.4773  
869.125    20.5244    128.2871   64.9969    0.033      1.1544     0.667      -20.879   
869.25     20.5211    127.0572   64.6387    0.0311     1.0988     0.7113     -15.6997  
869.375    20.5177    126.8547   63.3165    0.0291     1.091      0.7512     -12.3194  
869.5      20.5143    127.2758   61.8544    0.0275     1.1366     0.7867     -10.1252  
869.625    20.511     127.8065   60.9937    0.0264     1.2299     0.8169     -9.2111   
869.75     20.5078    128.0055   61.1419    0.0258     1.3557     0.8378     -10.2641  
869.875    20.5056    128.3319   61.9774    0.0246     1.5185     0.8287     -13.7534  
870        20.5048    128.8612   62.7975    0.0213     1.7129     0.8173     -21.5043  
870.125    20.5045    129.507    63.1699    0.0166     1.9103     0.8015     -31.6146  
870.25     20.5042    130.179    62.739     0.0116     2.0915     0.7811     -40.5267  
870.375    20.504     130.7782   61.3223    0.0072     2.2477     0.7572     -45.6763  
870.5      20.5037    131.1684   59.0816    0.0042     2.388      0.7318     -50.103   
870.625    20.5035    131.1309   57.1357    0.0035     2.5098     0.7004     -55.4828  
870.75     20.5035    130.9384   56.259     0.005      2.6036     0.6658     -60.1035  
870.875    20.5045    130.6966   56.1064    0.0083     2.6692     0.634      -63.3974  
871        20.5068    130.3788   56.1007    0.0127     2.7073     0.6101     -65.421   
871.125    20.51      129.8625   55.6253    0.0179     2.7193     0.5977     -66.7218  
871.25     20.5133    129.4924   54.4912    0.0237     2.703      0.6025     -67.0195  
871.375    20.5167    129.3588   53.0355    0.0276     2.6693     0.61       -66.6642  
871.5      20.5201    129.1565   51.573     0.0282     2.6168     0.6235     -65.6278  
871.625    20.5235    128.8165   50.8845    0.0258     2.5379     0.6403     -63.9525  
