~Version
 VERS              .         2.0                           : CWLS LOG ASCII STANDARD - VERSION 2.0
 WRAP              .         NO                            : ONE LINE PER DEPTH STEP
 DLM               .         SPACE                         : DELIMITING CHARACTER(SPACE TAB OR COMMA)
~Well Information
#_______________________________________________________________________________
#
#PARAMETER_NAME    .UNIT     VALUE                         : DESCRIPTION
#_______________________________________________________________________________
STRT               .M        30                            : First reference value
STOP               .M        3440                          : Last reference value
STEP               .M        0.125                         : Step increment
NULL               .         -9999                         : Missing value
COMP               .         	                           : Company
WELL               .         trial-1                       : Well name
FLD                .         trial                         : Field
LOC                .         UNKNOWN                       : Location
CNTY               .                             		   : County
STAT               .                              		   : State
CTRY               .                                 	   : Country
SRVC               .         UNKNOWN                       : Service Company
DATE               .         UNKNOWN                       : Date
UWI                .         20570423                      : Unique Well ID
YCOORD             .                 				       : SURFACE Y
LON                .                          			   : LONGITUDE
XCOORD             .                 				       : SURFACE X
LAT                .         		                       : LATITUDE
ELEV_TYPE          .         KB                            : ELEV TYPE
ELEV               .M        7.7600                        : SURFACE ELEV
group              .         trial                       : 
ORIGINALWELLNAME   .         trial-1                     : 
~Parameter Information Block
#_______________________________________________________________________________
#
#PARAMETER_NAME    .UNIT     VALUE                         : DESCRIPTION
#_______________________________________________________________________________
SET                .         Curvas_Basicas_Editadas_OW    : 
TLFamily_CALI_Edit .         Caliper                       : 
TLFamily_DT_Edit   .         Compressional Slowness        : 
TLFamily_GR_Edit   .         Gamma Ray                     : 
TLFamily_RM_Edit   .         Mud Resistivity               : 
TLFamily_DEPTH     .         Measured Depth                : 
TLFamily_SP_Edit   .         Spontaneous Potential         : 
TLFamily_RT_Edit   .         Formation Resistivity         : 
TLFamily_NPHI_Edit .         Neutron Porosity              : 
~Curve Information
#_______________________________________________________________________________
#
#LOGNAME           .UNIT     LOG_ID                        : DESCRIPTION
#_______________________________________________________________________________
DEPTH              .M                                      : Measured Depth 
CALI_Edit          .inches                                 : v1 
DT_Edit            .us/ft                                  : v1 
GR_Edit            .API                                    : v1 
NPHI_Edit          .v/v_decimal                            : v1 
RM_Edit            .ohm.m                                  : v1 
RT_Edit            .ohm.m                                  : v1 
SP_Edit            .mV                                     : v1 
~Ascii
# ...
1042.375   20.5081    121.5738   52.7411    -0.0481    1.7442     0.3271     -74.3424  
1042.5     20.5059    121.2265   53.5849    -0.0471    1.593      0.3521     -74.4745  
1042.625   20.5043    120.4359   53.7236    -0.0469    1.4197     0.3776     -74.1662  
1042.75    20.5033    119.6745   52.9991    -0.0462    1.2502     0.4037     -73.5243  
1042.875   20.5024    119.2107   51.4673    -0.0442    1.1278     0.4304     -72.7056  
1043       20.5014    119.1709   49.056     -0.0387    1.1418     0.4593     -71.7584  
1043.125   20.5005    118.9825   46.2514    -0.0298    1.247      0.4879     -70.7964  
1043.25    20.4998    118.9242   43.4854    -0.0202    1.3743     0.5166     -69.9291  
1043.375   20.4999    119.4527   41.1975    -0.0109    1.4784     0.5454     -69.5003  
1043.5     20.5012    120.808    39.7451    -0.0021    1.5343     0.574      -69.917   
1043.625   20.5026    122.0951   39.2798    0.0065     1.5386     0.6012     -71.5076  
1043.75    20.5041    122.4859   39.5947    0.0131     1.4812     0.62       -73.3504  
1043.875   20.5052    121.8485   40.0511    0.0163     1.3693     0.6238     -75.583   
1044       20.5056    121.1641   40.4576    0.0161     1.2226     0.6013     -77.7627  
1044.125   20.5055    121.0971   40.8131    0.0137     1.0633     0.5564     -79.449   
1044.25    20.5055    121.6486   41.2894    0.0107     0.9101     0.5106     -80.3529  
1044.375   20.5068    121.8209   42.1616    0.009      0.7574     0.4646     -80.55    
1044.5     20.5086    120.8411   43.3406    0.0063     0.6108     0.4185     -80.4319  
1044.625   20.5106    119.3732   44.862     0.0018     0.4988     0.3759     -80.1481  
1044.75    20.5128    117.8439   46.8634    -0.0036    0.4318     0.3405     -79.9435  
1044.875   20.5154    116.5905   49.4194    -0.0085    0.4057     0.3134     -80.0043  
1045       20.5192    115.9587   52.3605    -0.0127    0.3991     0.2899     -80.2506  
1045.125   20.5237    115.6505   54.3461    -0.0166    0.4006     0.2788     -80.1624  
1045.25    20.5285    115.5069   54.6844    -0.0198    0.3995     0.2692     -79.5179  
1045.375   20.5333    115.51     53.4304    -0.0226    0.3879     0.262      -78.8267  
1045.5     20.5383    115.6814   50.9835    -0.0244    0.3628     0.2576     -78.3748  
1045.625   20.5436    116.0674   48.0157    -0.0243    0.3285     0.2555     -78.1555  
1045.75    20.5489    116.6977   45.5603    -0.0184    0.3077     0.2507     -78.0677  
1045.875   20.5539    117.3869   44.0681    -0.0073    0.3116     0.2462     -78.3592  
1046       20.5576    117.8729   43.0342    0.0039     0.3276     0.2435     -78.7462  
1046.125   20.5593    117.6253   41.9861    0.0126     0.3479     0.2426     -79.1591  
1046.25    20.5592    116.5277   40.8334    0.0181     0.3648     0.2434     -78.9647  
1046.375   20.5588    115.5318   40.3159    0.0221     0.3698     0.2456     -76.2056  
1046.5     20.5583    115.0922   42.6697    0.0222     0.3573     0.2505     -74.4888  
1046.625   20.5572    114.9748   46.2761    0.0173     0.3461     0.2568     -73.2571  
1046.75    20.5552    114.7699   49.1167    0.0088     0.349      0.2678     -72.4541  
1046.875   20.5527    114.3502   50.0865    -0.001     0.3714     0.2836     -72.0027  
1047       20.5506    113.8414   49.0369    -0.0099    0.4123     0.3016     -71.8215  
1047.125   20.5509    113.524    46.8338    -0.0157    0.468      0.318      -71.9442  
1047.25    20.5524    113.4936   44.694     -0.0166    0.5365     0.3344     -72.3199  
1047.375   20.5548    113.2862   43.5919    -0.0152    0.6112     0.3529     -72.6285  
1047.5     20.5596    112.7624   43.7677    -0.0135    0.6921     0.3772     -72.6978  
1047.625   20.5677    111.9333   45.027     -0.012     0.7798     0.4079     -72.4276  
1047.75    20.5784    110.944    46.7618    -0.0098    0.875      0.4405     -71.7968  
1047.875   20.5895    110.4229   48.5678    -0.0059    0.9804     0.4812     -70.0361  
1048       20.6021    111.1212   51.1219    -0.0019    1.0932     0.5233     -67.2503  
1048.125   20.6186    113.2105   54.2501    0.002      1.2112     0.5668     -63.8621  
1048.25    20.6378    116.9548   57.3379    0.0052     1.3007     0.6096     -58.1574  
1048.375   20.6567    122.2435   59.6182    0.0073     1.3124     0.6468     -48.1979  
1048.5     20.6733    127.0241   60.5325    0.0075     1.1925     0.6642     -36.0464  
1048.625   20.6884    129.4508   60.3225    0.0075     1.0495     0.6755     -23.7251  
1048.75    20.702     130.6214   59.289     0.008      0.9513     0.6871     -14.4354  
1048.875   20.7115    130.0073   57.4871    0.0078     0.9153     0.7095     -9.0756   
1049       20.7163    127.4817   55.1415    0.0059     0.9437     0.7505     -6.9741   
1049.125   20.7191    123.8005   52.7078    0.0025     1.0289     0.8119     -6.0015   
1049.25    20.7217    121.2037   51.159     -0.0036    1.1521     0.8721     -6.0659   
1049.375   20.7243    119.2362   50.2268    -0.0093    1.2638     0.9065     -6.5739   
1049.5     20.7264    117.9155   49.608     -0.0095    1.3305     0.9008     -7.2064   
1049.625   20.7264    118.0132   49.095     -0.0048    1.3462     0.8667     -7.8706   
1049.75    20.7226    120.4384   48.5089    0.0014     1.3225     0.8336     -8.5944   
1049.875   20.7148    125.668    47.6216    0.0069     1.2827     0.8533     -9.4825   
1050       20.7066    129.8632   46.4846    0.0107     1.2359     0.9196     -10.1397  
1050.125   20.6986    132.5659   45.5145    0.0134     1.1867     0.8773     -10.6609  
1050.25    20.6917    134.1174   44.9771    0.0158     1.1429     0.8017     -10.1109  
1050.375   20.6861    134.7207   45.0109    0.0187     1.1125     0.7428     -8.5159   
1050.5     20.6808    134.3156   45.6026    0.0224     1.1017     0.6975     -6.94     
1050.625   20.6757    132.6628   46.4471    0.0249     1.1149     0.7077     -5.7443   
1050.75    20.6719    132.2065   46.896     0.0238     1.1422     0.8163     -5.4853   
1050.875   20.6725    133.2492   46.7359    0.0203     1.1895     0.9478     -6.8299   
1051       20.6775    135.0331   46.044     0.0159     1.26       1.068      -9.3968   
1051.125   20.6856    136.7442   45.0555    0.0121     1.3513     1.1577     -12.4479  
1051.25    20.694     138.4756   44.1127    0.0095     1.4499     1.2005     -15.3515  
1051.375   20.7016    139.2286   43.1662    0.0075     1.5482     1.1963     -17.9112  
1051.5     20.7093    139.1743   41.9227    0.0059     1.6449     1.1806     -20.0676  
1051.625   20.7174    138.5352   40.3721    0.0051     1.7215     1.1439     -21.8662  
1051.75    20.7259    137.6158   38.6089    0.0057     1.759      1.0835     -22.0779  
1051.875   20.7346    136.7131   36.8153    0.0082     1.7435     1.0047     -19.0893  
1052       20.7435    135.7282   35.3171    0.0125     1.6833     0.9099     -15.7844  
1052.125   20.7535    134.425    34.572     0.0174     1.6052     0.8539     -12.859   
1052.25    20.7653    132.8494   34.7494    0.0224     1.505      0.8202     -10.1951  
1052.375   20.7772    131.1283   35.7604    0.0276     1.3839     0.8048     -7.9495   
1052.5     20.7876    129.4637   37.2922    0.0329     1.257      0.8048     -6.2599   
1052.625   20.7957    128.1183   38.8125    0.0386     1.1603     0.815      -5.1073   
1052.75    20.8022    127.2428   39.7144    0.0446     1.1161     0.8344     -4.9482   
1052.875   20.8046    127.6463   40.2634    0.0482     1.0843     0.8494     -5.3018   
1053       20.8016    128.588    40.5608    0.0454     1.0636     0.8547     -5.9792   
1053.125   20.7951    129.4443   40.7573    0.036      1.0528     0.8409     -6.8171   
1053.25    20.7883    129.8687   41.0138    0.0233     1.051      0.8019     -7.6662   
1053.375   20.7824    130.1721   41.49      0.0166     1.0545     0.7633     -8.2458   
1053.5     20.777     130.4633   41.9565    0.0134     1.0642     0.7345     -8.4832   
1053.625   20.7734    130.834    42.2719    0.0106     1.079      0.7289     -8.552    
