~Version
 VERS              .         2.0                           : CWLS LOG ASCII STANDARD - VERSION 2.0
 WRAP              .         NO                            : ONE LINE PER DEPTH STEP
 DLM               .         SPACE                         : DELIMITING CHARACTER(SPACE TAB OR COMMA)
~Well Information
#_______________________________________________________________________________
#
#PARAMETER_NAME    .UNIT     VALUE                         : DESCRIPTION
#_______________________________________________________________________________
STRT               .M        30                            : First reference value
STOP               .M        3440                          : Last reference value
STEP               .M        0.125                         : Step increment
NULL               .         -9999                         : Missing value
COMP               .         	                           : Company
WELL               .         trial-1                       : Well name
FLD                .         trial                         : Field
LOC                .         UNKNOWN                       : Location
CNTY               .                             		   : County
STAT               .                              		   : State
CTRY               .                                 	   : Country
SRVC               .         UNKNOWN                       : Service Company
DATE               .         UNKNOWN                       : Date
UWI                .         20570423                      : Unique Well ID
YCOORD             .                 				       : SURFACE Y
LON                .                          			   : LONGITUDE
XCOORD             .                 				       : SURFACE X
LAT                .         		                       : LATITUDE
ELEV_TYPE          .         KB                            : ELEV TYPE
ELEV               .M        7.7600                        : SURFACE ELEV
group              .         trial                       : 
ORIGINALWELLNAME   .         trial-1                     : 
~Parameter Information Block
#_______________________________________________________________________________
#
#PARAMETER_NAME    .UNIT     VALUE                         : DESCRIPTION
#_______________________________________________________________________________
SET                .         Curvas_Basicas_Editadas_OW    : 
TLFamily_CALI_Edit .         Caliper                       : 
TLFamily_DT_Edit   .         Compressional Slowness        : 
TLFamily_GR_Edit   .         Gamma Ray                     : 
TLFamily_RM_Edit   .         Mud Resistivity               : 
TLFamily_DEPTH     .         Measured Depth                : 
TLFamily_SP_Edit   .         Spontaneous Potential         : 
TLFamily_RT_Edit   .         Formation Resistivity         : 
TLFamily_NPHI_Edit .         Neutron Porosity              : 
~Curve Information
#_______________________________________________________________________________
#
#LOGNAME           .UNIT     LOG_ID                        : DESCRIPTION
#_______________________________________________________________________________
DEPTH              .M                                      : Measured Depth 
CALI_Edit          .inches                                 : v1 
DT_Edit            .us/ft                                  : v1 
GR_Edit            .API                                    : v1 
NPHI_Edit          .v/v_decimal                            : v1 
RM_Edit            .ohm.m                                  : v1 
RT_Edit            .ohm.m                                  : v1 
SP_Edit            .mV                                     : v1 
~Ascii
# ...
678.375    20.3773    134.6849   -9999      -9999      0.9131     0.3359     -66.1335  
678.5      20.3784    135.1071   -9999      -9999      0.8436     0.312      -66.4752  
678.625    20.3796    135.9468   -9999      -9999      0.8059     0.2955     -66.7672  
678.75     20.3809    136.3595   -9999      -9999      0.8007     0.2898     -67.0209  
678.875    20.3826    136.5195   -9999      -9999      0.8069     0.2988     -67.2683  
679        20.385     136.4745   -9999      -9999      0.8191     0.3145     -67.5222  
679.125    20.3879    136.2947   -9999      -9999      0.8358     0.3307     -67.7867  
679.25     20.391     136.0899   -9999      -9999      0.8584     0.3467     -68.0536  
679.375    20.3941    135.902    -9999      -9999      0.8833     0.3618     -68.1708  
679.5      20.3971    135.7652   -9999      -9999      0.9074     0.3766     -68.2541  
679.625    20.3999    135.6816   -9999      -9999      0.9303     0.3904     -68.2985  
679.75     20.4019    135.6339   -9999      -9999      0.9526     0.4012     -68.2679  
679.875    20.4028    135.5949   -9999      -9999      0.9742     0.4079     -68.1444  
680        20.4033    135.5315   -9999      -9999      0.9934     0.4143     -68.01    
680.125    20.4038    135.2489   -9999      -9999      1.0013     0.4193     -67.8757  
680.25     20.4043    134.725    -9999      -9999      0.9994     0.4209     -67.6271  
680.375    20.4049    134.2619   -9999      -9999      0.9941     0.4212     -67.3195  
680.5      20.4055    134.127    -9999      -9999      0.9898     0.4224     -67.0345  
680.625    20.406     134.4497   -9999      -9999      0.9886     0.4263     -66.8462  
680.75     20.407     134.7917   -9999      -9999      0.9881     0.4377     -66.6924  
680.875    20.4081    134.9433   -9999      -9999      0.9846     0.4494     -66.6413  
681        20.4092    134.8117   -9999      -9999      0.9778     0.46       -66.668   
681.125    20.4103    134.4404   -9999      -9999      0.9707     0.4664     -66.7337  
681.25     20.4114    133.9837   -9999      -9999      0.9669     0.4675     -66.8136  
681.375    20.4125    133.7436   -9999      -9999      0.9687     0.4677     -66.9391  
681.5      20.4134    133.8211   -9999      -9999      0.9723     0.47       -67.0791  
681.625    20.4134    134.2706   -9999      -9999      0.9778     0.4745     -67.2205  
681.75     20.413     135.0156   -9999      -9999      0.9859     0.4802     -67.3619  
681.875    20.4124    135.8622   -9999      -9999      0.9922     0.4861     -67.5006  
682        20.4119    136.5649   -9999      -9999      0.9877     0.4901     -67.6335  
682.125    20.4113    137.0893   -9999      -9999      0.9586     0.4781     -67.7653  
682.25     20.4107    137.4613   -9999      -9999      0.9165     0.4559     -67.8971  
682.375    20.4102    137.7314   -9999      -9999      0.8787     0.4383     -68.0099  
682.5      20.41      137.9572   -9999      -9999      0.856      0.4287     -68.142   
682.625    20.41      138.1982   -9999      -9999      0.8518     0.4262     -68.3139  
682.75     20.41      138.5044   -9999      -9999      0.8592     0.4277     -68.4851  
682.875    20.41      138.8546   -9999      -9999      0.8594     0.4336     -68.5893  
683        20.41      139.1084   -9999      -9999      0.8518     0.4398     -68.6362  
683.125    20.41      139.2115   -9999      -9999      0.846      0.4461     -68.6617  
683.25     20.41      139.1837   -9999      -9999      0.8502     0.4526     -68.6508  
683.375    20.41      139.0961   -9999      -9999      0.8698     0.4592     -68.5648  
683.5      20.41      139.0303   -9999      -9999      0.9062     0.4633     -68.424   
683.625    20.4099    138.8662   -9999      -9999      0.9587     0.4639     -68.2543  
683.75     20.4088    138.5164   -9999      -9999      1.0127     0.464      -68.0405  
683.875    20.4058    138.0487   -9999      -9999      1.0559     0.4649     -67.8043  
684        20.4011    137.5772   -9999      -9999      1.0771     0.4691     -67.5768  
684.125    20.3961    137.2269   -9999      -9999      1.069      0.4803     -67.39    
684.25     20.3914    137.142    -9999      -9999      1.0272     0.4968     -67.3594  
684.375    20.3877    137.1491   -9999      -9999      0.9749     0.5128     -67.4786  
684.5      20.3846    137.1358   -9999      -9999      0.9147     0.5242     -67.6678  
684.625    20.3815    137.0767   -9999      -9999      0.8532     0.525      -67.9246  
684.75     20.3785    136.997    -9999      -9999      0.7991     0.5125     -68.2597  
684.875    20.3755    136.9341   -9999      -9999      0.7642     0.4992     -68.5804  
685        20.3725    136.8646   -9999      -9999      0.7442     0.4883     -68.8148  
685.125    20.3697    136.8033   -9999      -9999      0.7282     0.4857     -68.7487  
685.25     20.3674    136.7781   -9999      -9999      0.7136     0.4891     -68.1474  
685.375    20.3662    136.8115   -9999      -9999      0.6996     0.4936     -67.2185  
685.5      20.366     136.9216   -9999      -9999      0.6878     0.4935     -66.6355  
685.625    20.366     137.3092   -9999      -9999      0.6928     0.4938     -66.3912  
685.75     20.3661    137.8271   -9999      -9999      0.7161     0.4963     -66.393   
685.875    20.3667    138.3041   -9999      -9999      0.7437     0.5029     -66.5218  
686        20.3681    138.5796   -9999      -9999      0.7667     0.5157     -66.66    
686.125    20.3704    138.5378   -9999      -9999      0.7793     0.531      -66.7276  
686.25     20.3728    138.16     -9999      -9999      0.7766     0.5267     -66.7538  
686.375    20.3751    137.562    -9999      -9999      0.749      0.4715     -66.3932  
686.5      20.3769    136.6931   -9999      -9999      0.7075     0.4086     -65.807   
686.625    20.3779    135.8473   -9999      -9999      0.667      0.3537     -65.0586  
686.75     20.378     135.2129   -9999      -9999      0.6377     0.3175     -64.2447  
686.875    20.378     134.8217   -9999      -9999      0.6241     0.3038     -63.4732  
687        20.3785    134.633    -9999      -9999      0.6288     0.2907     -62.6736  
687.125    20.3806    134.818    -9999      -9999      0.6516     0.2835     -61.8378  
687.25     20.3831    135.2396   -9999      -9999      0.6827     0.2948     -61.3425  
687.375    20.3858    135.7626   -9999      -9999      0.7198     0.3171     -61.5713  
687.5      20.3884    136.2547   -9999      -9999      0.7631     0.3405     -62.613   
687.625    20.391     136.607    -9999      -9999      0.8139     0.3646     -63.9361  
687.75     20.3938    136.7909   -9999      -9999      0.8602     0.391      -65.4336  
687.875    20.3965    137.0154   -9999      -9999      0.8901     0.4094     -66.6392  
688        20.3992    137.3708   -9999      -9999      0.9001     0.412      -67.26    
688.125    20.4017    137.8626   -9999      -9999      0.8872     0.393      -67.4037  
688.25     20.4038    138.4286   -9999      -9999      0.8493     0.3522     -67.4334  
688.375    20.4057    138.9801   -9999      -9999      0.786      0.3157     -67.4558  
688.5      20.4075    139.5753   -9999      -9999      0.7167     0.2986     -67.5558  
688.625    20.409     140.2316   -9999      -9999      0.6515     0.2888     -67.7265  
688.75     20.4099    140.8062   -9999      -9999      0.5971     0.2887     -68.0332  
688.875    20.41      140.9978   -9999      -9999      0.5568     0.3008     -68.3747  
689        20.41      140.3125   -9999      -9999      0.5292     0.3216     -68.3597  
689.125    20.41      139.1676   -9999      -9999      0.5253     0.3489     -66.1646  
689.25     20.41      137.8503   -9999      -9999      0.5434     0.3784     -63.9012  
689.375    20.41      136.6035   -9999      -9999      0.5725     0.4091     -61.4407  
689.5      20.41      135.5733   -9999      -9999      0.6093     0.4369     -59.0381  
689.625    20.41      134.8163   -9999      -9999      0.6567     0.4565     -57.1176  
