~Version
 VERS              .         2.0                           : CWLS LOG ASCII STANDARD - VERSION 2.0
 WRAP              .         NO                            : ONE LINE PER DEPTH STEP
 DLM               .         SPACE                         : DELIMITING CHARACTER(SPACE TAB OR COMMA)
~Well Information
#_______________________________________________________________________________
#
#PARAMETER_NAME    .UNIT     VALUE                         : DESCRIPTION
#_______________________________________________________________________________
STRT               .M        30                            : First reference value
STOP               .M        3440                          : Last reference value
STEP               .M        0.125                         : Step increment
NULL               .         -9999                         : Missing value
COMP               .         	                           : Company
WELL               .         trial-1                       : Well name
FLD                .         trial                         : Field
LOC                .         UNKNOWN                       : Location
CNTY               .                             		   : County
STAT               .                              		   : State
CTRY               .                                 	   : Country
SRVC               .         UNKNOWN                       : Service Company
DATE               .         UNKNOWN                       : Date
UWI                .         20570423                      : Unique Well ID
YCOORD             .                 				       : SURFACE Y
LON                .                          			   : LONGITUDE
XCOORD             .                 				       : SURFACE X
LAT                .         		                       : LATITUDE
ELEV_TYPE          .         KB                            : ELEV TYPE
ELEV               .M        7.7600                        : SURFACE ELEV
group              .         trial                       : 
ORIGINALWELLNAME   .         trial-1                     : 
~Parameter Information Block
#_______________________________________________________________________________
#
#PARAMETER_NAME    .UNIT     VALUE                         : DESCRIPTION
#_______________________________________________________________________________
SET                .         Curvas_Basicas_Editadas_OW    : 
TLFamily_CALI_Edit .         Caliper                       : 
TLFamily_DT_Edit   .         Compressional Slowness        : 
TLFamily_GR_Edit   .         Gamma Ray                     : 
TLFamily_RM_Edit   .         Mud Resistivity               : 
TLFamily_DEPTH     .         Measured Depth                : 
TLFamily_SP_Edit   .         Spontaneous Potential         : 
TLFamily_RT_Edit   .         Formation Resistivity         : 
TLFamily_NPHI_Edit .         Neutron Porosity              : 
~Curve Information
#_______________________________________________________________________________
#
#LOGNAME           .UNIT     LOG_ID                        : DESCRIPTION
#_______________________________________________________________________________
DEPTH              .M                                      : Measured Depth 
CALI_Edit          .inches                                 : v1 
DT_Edit            .us/ft                                  : v1 
GR_Edit            .API                                    : v1 
NPHI_Edit          .v/v_decimal                            : v1 
RM_Edit            .ohm.m                                  : v1 
RT_Edit            .ohm.m                                  : v1 
SP_Edit            .mV                                     : v1 
~Ascii
# ...
1963.75    20.5352    110.8867   -9999      -9999      0.6066     0.3938     -43.2565  
1963.875   20.5347    110.4867   -9999      -9999      0.6303     0.344      -54.3717  
1964       20.5343    111.0548   -9999      -9999      0.6356     0.2714     -73.1888  
1964.125   20.5339    111.9892   -9999      -9999      0.6188     0.2122     -79.3933  
1964.25    20.5334    112.9497   -9999      -9999      0.6196     0.1843     -82.5285  
1964.375   20.5329    113.9128   -9999      -9999      0.649      0.1693     -84.0449  
1964.5     20.5324    114.8895   -9999      -9999      0.7023     0.1681     -83.9982  
1964.625   20.532     115.7746   -9999      -9999      0.7706     0.1794     -82.8661  
1964.75    20.5315    116.2836   -9999      -9999      0.843      0.1996     -81.3996  
1964.875   20.531     115.194    -9999      -9999      0.9013     0.2289     -79.0502  
1965       20.5305    113.8082   -9999      -9999      0.9372     0.2636     -76.4504  
1965.125   20.53      112.5857   -9999      -9999      0.9483     0.2973     -73.6661  
1965.25    20.5296    111.5699   -9999      -9999      0.9335     0.3341     -70.5371  
1965.375   20.5294    110.676    -9999      -9999      0.8941     0.3766     -67.0009  
1965.5     20.5297    109.8024   -9999      -9999      0.8332     0.4181     -63.304   
1965.625   20.5303    109.0417   -9999      -9999      0.7511     0.4414     -58.1081  
1965.75    20.5309    108.3864   -9999      -9999      0.6603     0.4589     -52.8749  
1965.875   20.5316    107.823    -9999      -9999      0.5693     0.4719     -47.0952  
1966       20.5322    107.4075   -9999      -9999      0.4878     0.4816     -40.8227  
1966.125   20.5329    107.2672   -9999      -9999      0.4244     0.4889     -34.5421  
1966.25    20.5335    107.7331   -9999      -9999      0.3859     0.4874     -28.7582  
1966.375   20.5345    108.3622   -9999      -9999      0.3765     0.4728     -21.4653  
1966.5     20.5358    109.0929   -9999      -9999      0.391      0.4513     -16.5318  
1966.625   20.5374    109.6995   -9999      -9999      0.4244     0.4236     -13.447   
1966.75    20.5389    110.1888   -9999      -9999      0.4725     0.3898     -11.4658  
1966.875   20.5405    110.9911   -9999      -9999      0.5333     0.3498     -10.9042  
1967       20.5419    111.7301   -9999      -9999      0.6056     0.3106     -12.9414  
1967.125   20.5428    112.4406   -9999      -9999      0.6755     0.2774     -16.8438  
1967.25    20.5434    113.1311   -9999      -9999      0.737      0.2482     -37.2571  
1967.375   20.5437    113.7869   -9999      -9999      0.7863     0.2275     -61.9491  
1967.5     20.544     114.3445   -9999      -9999      0.8176     0.2193     -71.2204  
1967.625   20.5443    114.5514   -9999      -9999      0.8067     0.2144     -75.3517  
1967.75    20.5446    114.1137   -9999      -9999      0.7476     0.214      -77.1053  
1967.875   20.5448    113.5562   -9999      -9999      0.6804     0.214      -77.4187  
1968       20.5446    112.9809   -9999      -9999      0.6266     0.215      -77.1787  
1968.125   20.5441    112.4474   -9999      -9999      0.6015     0.2193     -76.9896  
1968.25    20.5435    112.0339   -9999      -9999      0.6133     0.23       -77.0076  
1968.375   20.5429    112.1422   -9999      -9999      0.6579     0.2415     -77.3265  
1968.5     20.5424    112.4757   -9999      -9999      0.711      0.2522     -77.9005  
1968.625   20.5419    112.9331   -9999      -9999      0.7611     0.2606     -78.5657  
1968.75    20.5413    113.3995   -9999      -9999      0.7956     0.2697     -79.3595  
1968.875   20.5408    113.7925   -9999      -9999      0.8053     0.2854     -79.6381  
1969       20.5405    114.1553   -9999      -9999      0.7887     0.3176     -76.2083  
1969.125   20.5401    114.4648   -9999      -9999      0.7545     0.3477     -71.6343  
1969.25    20.5398    114.7353   -9999      -9999      0.7066     0.3771     -66.7141  
1969.375   20.5394    114.8594   -9999      -9999      0.6482     0.4058     -62.1751  
1969.5     20.5391    114.565    -9999      -9999      0.5861     0.4331     -58.5092  
1969.625   20.5388    113.5195   -9999      -9999      0.5312     0.4573     -55.9419  
1969.75    20.5385    112.3095   -9999      -9999      0.4984     0.4723     -55.0249  
1969.875   20.5385    110.6317   -9999      -9999      0.4885     0.4578     -54.7817  
1970       20.5395    107.8955   -9999      -9999      0.4945     0.421      -55.2825  
1970.125   20.5411    104.818    -9999      -9999      0.5101     0.38       -55.771   
1970.25    20.5427    102.4571   -9999      -9999      0.5293     0.3541     -54.9635  
1970.375   20.5444    101.6084   -9999      -9999      0.5464     0.3559     -50.9514  
1970.5     20.5462    102.8304   -9999      -9999      0.5494     0.3741     -46.3422  
1970.625   20.5479    104.4067   -9999      -9999      0.5441     0.4045     -43.8021  
1970.75    20.5496    106.0152   -9999      -9999      0.5381     0.4325     -44.728   
1970.875   20.5512    107.4957   -9999      -9999      0.5369     0.4548     -47.0753  
1971       20.5529    108.7671   -9999      -9999      0.5424     0.477      -46.5364  
1971.125   20.5545    109.5536   -9999      -9999      0.553      0.4939     -40.8061  
1971.25    20.556     110.2363   -9999      -9999      0.562      0.5018     -35.7524  
1971.375   20.5574    110.8723   -9999      -9999      0.5694     0.4955     -31.3543  
1971.5     20.5588    111.4444   -9999      -9999      0.5762     0.4756     -27.5395  
1971.625   20.5603    111.8698   -9999      -9999      0.5834     0.447      -24.5762  
1971.75    20.5617    111.9786   -9999      -9999      0.5903     0.4187     -23.3659  
1971.875   20.5632    111.9447   -9999      -9999      0.5941     0.4001     -23.6829  
1972       20.5646    112.1598   -9999      -9999      0.594      0.4001     -26.0517  
1972.125   20.566     112.4203   -9999      -9999      0.5894     0.4131     -28.949   
1972.25    20.5675    112.4693   -9999      -9999      0.5836     0.4321     -31.2353  
1972.375   20.5688    112.1291   -9999      -9999      0.5829     0.4503     -32.2042  
1972.5     20.5701    111.6914   -9999      -9999      0.5945     0.4643     -31.4833  
1972.625   20.5713    111.6495   -9999      -9999      0.6082     0.4646     -30.5412  
1972.75    20.5725    111.7412   -9999      -9999      0.6179     0.4566     -30.1667  
1972.875   20.5738    111.8281   -9999      -9999      0.6186     0.4509     -32.671   
1973       20.575     111.8498   -9999      -9999      0.6075     0.4537     -38.5957  
1973.125   20.5761    111.8389   -9999      -9999      0.5849     0.4628     -45.5386  
1973.25    20.5769    111.7841   -9999      -9999      0.5686     0.4784     -47.8047  
1973.375   20.5763    111.6087   -9999      -9999      0.5688     0.4935     -49.4711  
1973.5     20.5747    111.3926   -9999      -9999      0.5829     0.5042     -51.0476  
1973.625   20.5725    111.191    -9999      -9999      0.6073     0.5083     -52.4243  
1973.75    20.5703    111.0631   -9999      -9999      0.6376     0.5039     -52.8666  
1973.875   20.5681    111.1472   -9999      -9999      0.6685     0.4884     -50.2543  
1974       20.5659    111.2802   -9999      -9999      0.6883     0.462      -48.2523  
1974.125   20.564     111.4207   -9999      -9999      0.6952     0.4304     -46.4103  
1974.25    20.5628    111.9967   -9999      -9999      0.6942     0.4047     -44.2406  
1974.375   20.5623    113.2292   -9999      -9999      0.6904     0.3948     -41.8563  
1974.5     20.5619    114.9661   -9999      -9999      0.6873     0.4059     -40.0198  
1974.625   20.5615    116.0388   -9999      -9999      0.6852     0.428      -39.1087  
1974.75    20.5612    115.7086   -9999      -9999      0.6838     0.4522     -38.5493  
1974.875   20.5611    114.9319   -9999      -9999      0.6847     0.4775     -38.0941  
1975       20.5613    114.1263   -9999      -9999      0.6893     0.5041     -37.5261  
