~Version
 VERS              .         2.0                           : CWLS LOG ASCII STANDARD - VERSION 2.0
 WRAP              .         NO                            : ONE LINE PER DEPTH STEP
 DLM               .         SPACE                         : DELIMITING CHARACTER(SPACE TAB OR COMMA)
~Well Information
#_______________________________________________________________________________
#
#PARAMETER_NAME    .UNIT     VALUE                         : DESCRIPTION
#_______________________________________________________________________________
STRT               .M        30                            : First reference value
STOP               .M        3440                          : Last reference value
STEP               .M        0.125                         : Step increment
NULL               .         -9999                         : Missing value
COMP               .         	                           : Company
WELL               .         trial-1                       : Well name
FLD                .         trial                         : Field
LOC                .         UNKNOWN                       : Location
CNTY               .                             		   : County
STAT               .                              		   : State
CTRY               .                                 	   : Country
SRVC               .         UNKNOWN                       : Service Company
DATE               .         UNKNOWN                       : Date
UWI                .         20570423                      : Unique Well ID
YCOORD             .                 				       : SURFACE Y
LON                .                          			   : LONGITUDE
XCOORD             .                 				       : SURFACE X
LAT                .         		                       : LATITUDE
ELEV_TYPE          .         KB                            : ELEV TYPE
ELEV               .M        7.7600                        : SURFACE ELEV
group              .         trial                       : 
ORIGINALWELLNAME   .         trial-1                     : 
~Parameter Information Block
#_______________________________________________________________________________
#
#PARAMETER_NAME    .UNIT     VALUE                         : DESCRIPTION
#_______________________________________________________________________________
SET                .         Curvas_Basicas_Editadas_OW    : 
TLFamily_CALI_Edit .         Caliper                       : 
TLFamily_DT_Edit   .         Compressional Slowness        : 
TLFamily_GR_Edit   .         Gamma Ray                     : 
TLFamily_RM_Edit   .         Mud Resistivity               : 
TLFamily_DEPTH     .         Measured Depth                : 
TLFamily_SP_Edit   .         Spontaneous Potential         : 
TLFamily_RT_Edit   .         Formation Resistivity         : 
TLFamily_NPHI_Edit .         Neutron Porosity              : 
~Curve Information
#_______________________________________________________________________________
#
#LOGNAME           .UNIT     LOG_ID                        : DESCRIPTION
#_______________________________________________________________________________
DEPTH              .M                                      : Measured Depth 
CALI_Edit          .inches                                 : v1 
DT_Edit            .us/ft                                  : v1 
GR_Edit            .API                                    : v1 
NPHI_Edit          .v/v_decimal                            : v1 
RM_Edit            .ohm.m                                  : v1 
RT_Edit            .ohm.m                                  : v1 
SP_Edit            .mV                                     : v1 
~Ascii
# ...
1588.375   20.5649    110.5406   -9999      -9999      0.8653     0.3387     -60.1884  
1588.5     20.5698    111.8036   -9999      -9999      0.8409     0.3569     -59.5222  
1588.625   20.5741    113.2949   -9999      -9999      0.8322     0.3747     -61.0406  
1588.75    20.5771    113.5643   -9999      -9999      0.8525     0.3904     -61.9751  
1588.875   20.5805    112.5287   -9999      -9999      0.8871     0.4072     -58.6314  
1589       20.5859    111.4333   -9999      -9999      0.9263     0.4286     -54.1381  
1589.125   20.5943    110.673    -9999      -9999      0.9666     0.4551     -48.8882  
1589.25    20.6056    110.7058   -9999      -9999      1.0071     0.4852     -43.3085  
1589.375   20.6183    112.8561   -9999      -9999      1.0477     0.5159     -39.8361  
1589.5     20.6246    116.2986   -9999      -9999      1.0788     0.5493     -39.4203  
1589.625   20.6235    118.297    -9999      -9999      1.0955     0.583      -40.512   
1589.75    20.6185    118.9608   -9999      -9999      1.1063     0.6117     -42.5602  
1589.875   20.6106    118.6784   -9999      -9999      1.1198     0.6302     -43.9114  
1590       20.5996    117.9242   -9999      -9999      1.1433     0.6358     -42.373   
1590.125   20.598     117.0508   -9999      -9999      1.1796     0.6404     -37.2259  
1590.25    20.6461    116.0487   -9999      -9999      1.2298     0.6431     -33.1011  
1590.375   20.7849    114.8891   -9999      -9999      1.2793     0.6443     -30.0311  
1590.5     20.9678    113.4209   -9999      -9999      1.3085     0.6469     -28.1121  
1590.625   21.1398    111.7091   -9999      -9999      1.3034     0.6544     -27.8466  
1590.75    21.2764    110.2428   -9999      -9999      1.2642     0.6705     -30.4733  
1590.875   21.2635    111.322    -9999      -9999      1.2149     0.6888     -33.6808  
1591       21.1717    111.5583   -9999      -9999      1.1777     0.7181     -33.4063  
1591.125   21.0496    110.9177   -9999      -9999      1.1597     0.7618     -30.7808  
1591.25    20.9362    110.0207   -9999      -9999      1.1624     0.8153     -27.4002  
1591.375   20.8546    109.7211   -9999      -9999      1.1832     0.8709     -24.7069  
1591.5     20.7953    110.1458   -9999      -9999      1.2193     0.9316     -22.5978  
1591.625   20.7694    109.199    -9999      -9999      1.2572     0.9951     -20.4478  
1591.75    20.7495    108.2432   -9999      -9999      1.2916     1.0573     -18.3851  
1591.875   20.7199    107.8864   -9999      -9999      1.3168     1.1133     -16.4092  
1592       20.6699    108.3158   -9999      -9999      1.3239     1.1555     -14.6537  
1592.125   20.5949    109.24     -9999      -9999      1.2997     1.1722     -13.4423  
1592.25    20.5452    109.0288   -9999      -9999      1.2469     1.1114     -12.4786  
1592.375   20.533     108.077    -9999      -9999      1.2014     1.0445     -11.7049  
1592.5     20.5349    107.9413   -9999      -9999      1.1649     0.9685     -11.3195  
1592.625   20.5419    108.649    -9999      -9999      1.1417     0.8859     -11.4178  
1592.75    20.5516    109.4778   -9999      -9999      1.1371     0.8015     -12.1184  
1592.875   20.5591    109.8374   -9999      -9999      1.1606     0.7165     -13.9222  
1593       20.5601    108.2937   -9999      -9999      1.2007     0.6355     -18.8273  
1593.125   20.5599    105.3455   -9999      -9999      1.2527     0.5568     -24.0251  
1593.25    20.5593    101.2685   -9999      -9999      1.3161     0.4835     -28.3044  
1593.375   20.5582    96.5127    -9999      -9999      1.3941     0.4186     -31.5222  
1593.5     20.5558    91.6492    -9999      -9999      1.4928     0.3642     -34.9237  
1593.625   20.5524    86.3548    -9999      -9999      1.6215     0.3445     -46.0243  
1593.75    20.549     81.0984    -9999      -9999      1.7537     0.3388     -58.9683  
1593.875   20.5454    80.3367    -9999      -9999      1.8627     0.356      -71.8117  
1594       20.5419    82.8324    -9999      -9999      1.9361     0.3913     -80.9832  
1594.125   20.5385    85.8751    -9999      -9999      1.9781     0.4371     -84.38    
1594.25    20.5353    88.9945    -9999      -9999      2.0198     0.4932     -85.2851  
1594.375   20.5338    92.1161    -9999      -9999      2.0808     0.5546     -85.1853  
1594.5     20.5325    95.2381    -9999      -9999      2.1473     0.6238     -84.5878  
1594.625   20.5313    98.3599    -9999      -9999      2.2271     0.7031     -83.508   
1594.75    20.5302    101.5487   -9999      -9999      2.3272     0.7897     -82.1042  
1594.875   20.5296    104.9157   -9999      -9999      2.4498     0.8758     -80.6281  
1595       20.5308    108.464    -9999      -9999      2.584      0.9529     -78.8881  
1595.125   20.5323    109.5595   -9999      -9999      2.7206     1.0115     -78.8026  
1595.25    20.5337    110.0049   -9999      -9999      2.8494     1.0415     -79.9398  
1595.375   20.5352    110.3344   -9999      -9999      2.925      1.025      -81.7183  
1595.5     20.5368    110.7027   -9999      -9999      2.8994     0.9576     -83.8751  
1595.625   20.5386    111.149    -9999      -9999      2.7388     0.8652     -86.9984  
1595.75    20.5412    111.3979   -9999      -9999      2.4776     0.7375     -89.4212  
1595.875   20.5439    110.0878   -9999      -9999      2.1244     0.6129     -91.5979  
1596       20.5467    106.0478   -9999      -9999      1.7183     0.5045     -93.329   
1596.125   20.5495    99.507     -9999      -9999      1.3161     0.4164     -94.0148  
1596.25    20.5523    91.5485    -9999      -9999      0.9766     0.3447     -93.168   
1596.375   20.5552    81.8838    -9999      -9999      0.7258     0.2827     -92.4339  
1596.5     20.5587    78.7785    -9999      -9999      0.5677     0.2305     -92.3514  
1596.625   20.5623    78.1303    -9999      -9999      0.474      0.1892     -92.4162  
1596.75    20.5657    80.4161    -9999      -9999      0.4236     0.1658     -92.4853  
1596.875   20.5681    85.7042    -9999      -9999      0.4005     0.1652     -92.4323  
1597       20.5685    92.021     -9999      -9999      0.3986     0.1861     -92.0729  
1597.125   20.5682    100.5471   -9999      -9999      0.421      0.2474     -90.9811  
1597.25    20.5678    107.3177   -9999      -9999      0.4492     0.3114     -89.719   
1597.375   20.5674    111.4282   -9999      -9999      0.4887     0.3793     -88.4668  
1597.5     20.5672    113.4382   -9999      -9999      0.5441     0.4512     -87.3553  
1597.625   20.5672    114.5045   -9999      -9999      0.6157     0.524      -86.4831  
1597.75    20.5674    114.4907   -9999      -9999      0.6903     0.5816     -86.005   
1597.875   20.5675    112.8612   -9999      -9999      0.7558     0.617      -86.7179  
1598       20.5677    110.021    -9999      -9999      0.813      0.6347     -87.9607  
1598.125   20.5678    107.8678   -9999      -9999      0.8613     0.624      -89.5177  
1598.25    20.5676    106.7982   -9999      -9999      0.9        0.5765     -91.296   
1598.375   20.567     104.7551   -9999      -9999      0.9263     0.4914     -93.2872  
1598.5     20.5667    94.5926    -9999      -9999      0.8689     0.3967     -94.9895  
1598.625   20.5667    86.1792    -9999      -9999      0.7275     0.319      -95.5654  
1598.75    20.5684    79.1592    -9999      -9999      0.5767     0.253      -95.3681  
1598.875   20.5721    76.0005    -9999      -9999      0.4592     0.2023     -94.6447  
1599       20.5771    78.4889    -9999      -9999      0.3944     0.1717     -93.581   
1599.125   20.5818    82.3948    -9999      -9999      0.3736     0.1592     -92.2546  
1599.25    20.5841    88.9578    -9999      -9999      0.3744     0.1751     -91.3727  
1599.375   20.5855    97.2903    -9999      -9999      0.3844     0.223      -90.6975  
1599.5     20.5863    104.0034   -9999      -9999      0.4026     0.2853     -90.0162  
1599.625   20.5863    108.2298   -9999      -9999      0.4278     0.3503     -89.2061  
