~Version
 VERS              .         2.0                           : CWLS LOG ASCII STANDARD - VERSION 2.0
 WRAP              .         NO                            : ONE LINE PER DEPTH STEP
 DLM               .         SPACE                         : DELIMITING CHARACTER(SPACE TAB OR COMMA)
~Well Information
#_______________________________________________________________________________
#
#PARAMETER_NAME    .UNIT     VALUE                         : DESCRIPTION
#_______________________________________________________________________________
STRT               .M        30                            : First reference value
STOP               .M        3440                          : Last reference value
STEP               .M        0.125                         : Step increment
NULL               .         -9999                         : Missing value
COMP               .         	                           : Company
WELL               .         trial-1                       : Well name
FLD                .         trial                         : Field
LOC                .         UNKNOWN                       : Location
CNTY               .                             		   : County
STAT               .                              		   : State
CTRY               .                                 	   : Country
SRVC               .         UNKNOWN                       : Service Company
DATE               .         UNKNOWN                       : Date
UWI                .         20570423                      : Unique Well ID
YCOORD             .                 				       : SURFACE Y
LON                .                          			   : LONGITUDE
XCOORD             .                 				       : SURFACE X
LAT                .         		                       : LATITUDE
ELEV_TYPE          .         KB                            : ELEV TYPE
ELEV               .M        7.7600                        : SURFACE ELEV
group              .         trial                       : 
ORIGINALWELLNAME   .         trial-1                     : 
~Parameter Information Block
#_______________________________________________________________________________
#
#PARAMETER_NAME    .UNIT     VALUE                         : DESCRIPTION
#_______________________________________________________________________________
SET                .         Curvas_Basicas_Editadas_OW    : 
TLFamily_CALI_Edit .         Caliper                       : 
TLFamily_DT_Edit   .         Compressional Slowness        : 
TLFamily_GR_Edit   .         Gamma Ray                     : 
TLFamily_RM_Edit   .         Mud Resistivity               : 
TLFamily_DEPTH     .         Measured Depth                : 
TLFamily_SP_Edit   .         Spontaneous Potential         : 
TLFamily_RT_Edit   .         Formation Resistivity         : 
TLFamily_NPHI_Edit .         Neutron Porosity              : 
~Curve Information
#_______________________________________________________________________________
#
#LOGNAME           .UNIT     LOG_ID                        : DESCRIPTION
#_______________________________________________________________________________
DEPTH              .M                                      : Measured Depth 
CALI_Edit          .inches                                 : v1 
DT_Edit            .us/ft                                  : v1 
GR_Edit            .API                                    : v1 
NPHI_Edit          .v/v_decimal                            : v1 
RM_Edit            .ohm.m                                  : v1 
RT_Edit            .ohm.m                                  : v1 
SP_Edit            .mV                                     : v1 
~Ascii
# ...
3055.75    17.1584    88.4397    -9999      -9999      2.3845     2.0839     -0.967    
3055.875   17.1661    89.2089    -9999      -9999      2.4154     2.0981     -1.0097   
3056       17.1779    89.2411    -9999      -9999      2.4402     2.1342     -1.0925   
3056.125   17.1911    88.689     -9999      -9999      2.4564     2.1867     -1.2063   
3056.25    17.2026    87.9267    -9999      -9999      2.4641     2.2401     -1.3313   
3056.375   17.211     87.3209    -9999      -9999      2.4648     2.2702     -1.4571   
3056.5     17.2193    86.524     -9999      -9999      2.4573     2.2711     -1.5829   
3056.625   17.2267    85.0678    -9999      -9999      2.4429     2.2597     -1.7604   
3056.75    17.2331    83.5145    -9999      -9999      2.4246     2.2412     -2.0122   
3056.875   17.2387    82.4326    -9999      -9999      2.4058     2.2181     -2.3258   
3057       17.2441    82.194     -9999      -9999      2.3902     2.1911     -2.661    
3057.125   17.2494    82.3672    -9999      -9999      2.3845     2.1626     -2.9976   
3057.25    17.2542    82.7774    -9999      -9999      2.3879     2.1383     -3.384    
3057.375   17.2571    83.3084    -9999      -9999      2.4032     2.1216     -3.8012   
3057.5     17.2563    83.8116    -9999      -9999      2.4324     2.1136     -4.2164   
3057.625   17.2509    84.1424    -9999      -9999      2.4745     2.1142     -4.5954   
3057.75    17.2405    84.1964    -9999      -9999      2.5238     2.123      -4.9122   
3057.875   17.227     84.1997    -9999      -9999      2.5757     2.1424     -5.1626   
3058       17.2136    84.3036    -9999      -9999      2.6382     2.1723     -5.3857   
3058.125   17.2009    84.4391    -9999      -9999      2.7123     2.212      -5.5767   
3058.25    17.1909    84.5673    -9999      -9999      2.7933     2.2578     -5.743    
3058.375   17.1856    84.6795    -9999      -9999      2.8744     2.3046     -5.9003   
3058.5     17.1852    84.7513    -9999      -9999      2.9582     2.349      -6.0571   
3058.625   17.1851    84.7039    -9999      -9999      3.0419     2.397      -6.2138   
3058.75    17.1848    84.4351    -9999      -9999      3.1207     2.4529     -6.3693   
3058.875   17.1843    83.9263    -9999      -9999      3.1911     2.5156     -6.4845   
3059       17.1833    83.2643    -9999      -9999      3.2472     2.5807     -6.5424   
3059.125   17.1819    82.6644    -9999      -9999      3.2791     2.6403     -6.5765   
3059.25    17.1804    82.7746    -9999      -9999      3.2671     2.6831     -6.6088   
3059.375   17.1789    83.5204    -9999      -9999      3.2169     2.7122     -6.5936   
3059.5     17.1775    84.3203    -9999      -9999      3.1379     2.7283     -6.5433   
3059.625   17.1759    85.3889    -9999      -9999      3.0462     2.7329     -6.4627   
3059.75    17.1742    87.0889    -9999      -9999      2.9606     2.7276     -6.3707   
3059.875   17.1724    88.1552    -9999      -9999      2.8981     2.7131     -6.384    
3060       17.1706    87.0623    -9999      -9999      2.8577     2.6876     -6.4185   
3060.125   17.1687    86.0726    -9999      -9999      2.8293     2.6507     -6.4535   
3060.25    17.1669    85.9464    -9999      -9999      2.8078     2.6026     -6.496    
3060.375   17.165     86.6762    -9999      -9999      2.7906     2.5463     -6.5744   
3060.5     17.1631    87.5203    -9999      -9999      2.779      2.4886     -6.734    
3060.625   17.1606    88.4035    -9999      -9999      2.7804     2.4507     -6.9414   
3060.75    17.1576    88.48      -9999      -9999      2.7906     2.4441     -7.1939   
3060.875   17.1544    87.9948    -9999      -9999      2.8052     2.4621     -7.4673   
3061       17.1511    87.358     -9999      -9999      2.8211     2.494      -7.6795   
3061.125   17.1482    86.8802    -9999      -9999      2.8361     2.5286     -7.7662   
3061.25    17.146     86.2554    -9999      -9999      2.8509     2.5594     -7.7991   
3061.375   17.1451    85.6593    -9999      -9999      2.868      2.5855     -7.6873   
3061.5     17.1444    85.3133    -9999      -9999      2.8861     2.6085     -7.3695   
3061.625   17.1433    85.3462    -9999      -9999      2.9062     2.6291     -6.8444   
3061.75    17.1414    85.8003    -9999      -9999      2.9278     2.6477     -6.259    
3061.875   17.1393    86.6509    -9999      -9999      2.9489     2.6648     -5.6497   
3062       17.1381    88.2208    -9999      -9999      2.9613     2.6786     -4.9954   
3062.125   17.1394    89.5933    -9999      -9999      2.9586     2.6888     -4.48     
3062.25    17.1437    90.7483    -9999      -9999      2.9369     2.695      -4.0501   
3062.375   17.153     91.5994    -9999      -9999      2.8969     2.6956     -3.768    
3062.5     17.1693    91.9461    -9999      -9999      2.8433     2.6886     -3.6718   
3062.625   17.1933    91.3076    -9999      -9999      2.7842     2.6703     -3.6517   
3062.75    17.2145    90.4239    -9999      -9999      2.7369     2.6275     -3.739    
3062.875   17.2312    89.9517    -9999      -9999      2.7076     2.5587     -3.7155   
3063       17.2448    90.1033    -9999      -9999      2.695      2.4744     -3.5938   
3063.125   17.2534    90.7168    -9999      -9999      2.697      2.3956     -3.404    
3063.25    17.2528    91.39      -9999      -9999      2.7118     2.3486     -3.1768   
3063.375   17.2421    92.1658    -9999      -9999      2.7422     2.3592     -2.9178   
3063.5     17.231     93.4074    -9999      -9999      2.7779     2.3966     -2.7743   
3063.625   17.2205    94.4066    -9999      -9999      2.8096     2.437      -2.7909   
3063.75    17.2108    94.8792    -9999      -9999      2.8364     2.4747     -2.9377   
3063.875   17.2019    94.6767    -9999      -9999      2.8595     2.509      -3.1703   
3064       17.1932    93.6942    -9999      -9999      2.8808     2.5417     -3.4693   
3064.125   17.1851    92.8181    -9999      -9999      2.8978     2.5726     -3.6761   
3064.25    17.1783    92.2552    -9999      -9999      2.9068     2.6009     -3.8653   
3064.375   17.173     92.0343    -9999      -9999      2.9051     2.621      -4.0566   
3064.5     17.1688    92.2803    -9999      -9999      2.8919     2.6237     -4.262    
3064.625   17.165     93.1227    -9999      -9999      2.8685     2.6007     -4.4834   
3064.75    17.1609    94.4327    -9999      -9999      2.8361     2.5563     -4.7184   
3064.875   17.1566    94.1923    -9999      -9999      2.8045     2.5402     -4.9934   
3065       17.152     93.6315    -9999      -9999      2.7765     2.5427     -5.2922   
3065.125   17.1473    92.8214    -9999      -9999      2.7516     2.5396     -5.6023   
3065.25    17.1427    91.6274    -9999      -9999      2.7292     2.5143     -5.9119   
3065.375   17.1381    89.9348    -9999      -9999      2.7094     2.4678     -6.2066   
3065.5     17.1339    88.7773    -9999      -9999      2.6806     2.4143     -6.4719   
3065.625   17.1309    88.2861    -9999      -9999      2.6451     2.3785     -6.7246   
3065.75    17.129     89.1763    -9999      -9999      2.6116     2.3677     -6.901    
3065.875   17.1276    90.8849    -9999      -9999      2.5862     2.3797     -6.9877   
3066       17.1263    92.3095    -9999      -9999      2.5728     2.4064     -7.0016   
3066.125   17.125     92.8945    -9999      -9999      2.5754     2.4354     -6.9532   
3066.25    17.1237    93.8642    -9999      -9999      2.5938     2.4561     -6.7712   
3066.375   17.1228    94.8866    -9999      -9999      2.6201     2.463      -6.5468   
3066.5     17.1224    94.9405    -9999      -9999      2.6504     2.4552     -6.308    
3066.625   17.1225    93.2732    -9999      -9999      2.6821     2.435      -6.0735   
3066.75    17.1228    89.7612    -9999      -9999      2.7138     2.4082     -5.8598   
3066.875   17.1231    87.3964    -9999      -9999      2.7398     2.3923     -5.7458   
3067       17.1233    88.3655    -9999      -9999      2.756      2.4027     -5.6639   
