~Version
 VERS              .         2.0                           : CWLS LOG ASCII STANDARD - VERSION 2.0
 WRAP              .         NO                            : ONE LINE PER DEPTH STEP
 DLM               .         SPACE                         : DELIMITING CHARACTER(SPACE TAB OR COMMA)
~Well Information
#_______________________________________________________________________________
#
#PARAMETER_NAME    .UNIT     VALUE                         : DESCRIPTION
#_______________________________________________________________________________
STRT               .M        30                            : First reference value
STOP               .M        3440                          : Last reference value
STEP               .M        0.125                         : Step increment
NULL               .         -9999                         : Missing value
COMP               .         	                           : Company
WELL               .         trial-1                       : Well name
FLD                .         trial                         : Field
LOC                .         UNKNOWN                       : Location
CNTY               .                             		   : County
STAT               .                              		   : State
CTRY               .                                 	   : Country
SRVC               .         UNKNOWN                       : Service Company
DATE               .         UNKNOWN                       : Date
UWI                .         20570423                      : Unique Well ID
YCOORD             .                 				       : SURFACE Y
LON                .                          			   : LONGITUDE
XCOORD             .                 				       : SURFACE X
LAT                .         		                       : LATITUDE
ELEV_TYPE          .         KB                            : ELEV TYPE
ELEV               .M        7.7600                        : SURFACE ELEV
group              .         trial                       : 
ORIGINALWELLNAME   .         trial-1                     : 
~Parameter Information Block
#_______________________________________________________________________________
#
#PARAMETER_NAME    .UNIT     VALUE                         : DESCRIPTION
#_______________________________________________________________________________
SET                .         Curvas_Basicas_Editadas_OW    : 
TLFamily_CALI_Edit .         Caliper                       : 
TLFamily_DT_Edit   .         Compressional Slowness        : 
TLFamily_GR_Edit   .         Gamma Ray                     : 
TLFamily_RM_Edit   .         Mud Resistivity               : 
TLFamily_DEPTH     .         Measured Depth                : 
TLFamily_SP_Edit   .         Spontaneous Potential         : 
TLFamily_RT_Edit   .         Formation Resistivity         : 
TLFamily_NPHI_Edit .         Neutron Porosity              : 
~Curve Information
#_______________________________________________________________________________
#
#LOGNAME           .UNIT     LOG_ID                        : DESCRIPTION
#_______________________________________________________________________________
DEPTH              .M                                      : Measured Depth 
CALI_Edit          .inches                                 : v1 
DT_Edit            .us/ft                                  : v1 
GR_Edit            .API                                    : v1 
NPHI_Edit          .v/v_decimal                            : v1 
RM_Edit            .ohm.m                                  : v1 
RT_Edit            .ohm.m                                  : v1 
SP_Edit            .mV                                     : v1 
~Ascii
# ...
1770.375   20.4601    114.149    -9999      -9999      0.9019     0.5993     -18.5231  
1770.5     20.4621    114.5693   -9999      -9999      0.961      0.544      -22.9239  
1770.625   20.4639    114.1465   -9999      -9999      1.0576     0.5027     -29.7733  
1770.75    20.4651    112.9231   -9999      -9999      1.1662     0.4728     -38.6575  
1770.875   20.4655    111.3412   -9999      -9999      1.2002     0.4741     -44.7781  
1771       20.4659    109.7297   -9999      -9999      1.1242     0.489      -48.0726  
1771.125   20.4662    108.1877   -9999      -9999      1.0209     0.5064     -42.9456  
1771.25    20.4665    106.7985   -9999      -9999      0.9378     0.5242     -34.2356  
1771.375   20.4667    105.5844   -9999      -9999      0.8976     0.5427     -27.1111  
1771.5     20.4667    104.489    -9999      -9999      0.8918     0.5632     -24.1194  
1771.625   20.4664    103.809    -9999      -9999      0.9127     0.5878     -23.6718  
1771.75    20.4659    104.4362   -9999      -9999      0.958      0.6046     -28.4119  
1771.875   20.4655    106.0273   -9999      -9999      1.0234     0.6074     -34.5144  
1772       20.4651    107.8688   -9999      -9999      1.0878     0.6        -39.3883  
1772.125   20.4646    109.0283   -9999      -9999      1.1238     0.5903     -40.641   
1772.25    20.4641    108.3267   -9999      -9999      1.1044     0.5819     -33.7963  
1772.375   20.4637    106.8864   -9999      -9999      1.0633     0.5808     -28.5296  
1772.5     20.4632    105.7713   -9999      -9999      1.0295     0.5838     -25.5558  
1772.625   20.4623    104.8199   -9999      -9999      1.0145     0.5934     -24.5434  
1772.75    20.4611    103.8136   -9999      -9999      1.021      0.6099     -24.6919  
1772.875   20.4596    102.6883   -9999      -9999      1.0434     0.631      -24.9102  
1773       20.4582    102.2817   -9999      -9999      1.0676     0.6577     -24.0374  
1773.125   20.4568    102.5618   -9999      -9999      1.0835     0.6859     -22.3113  
1773.25    20.4553    102.6681   -9999      -9999      1.0915     0.7185     -20.7479  
1773.375   20.4539    102.5867   -9999      -9999      1.0945     0.7548     -19.889   
1773.5     20.4526    102.6488   -9999      -9999      1.0965     0.793      -19.8108  
1773.625   20.452     103.276    -9999      -9999      1.1007     0.8332     -19.8255  
1773.75    20.4552    104.2188   -9999      -9999      1.1117     0.883      -17.608   
1773.875   20.4589    105.178    -9999      -9999      1.1288     0.9369     -14.7986  
1774       20.4628    106.0388   -9999      -9999      1.1428     0.9904     -12.3068  
1774.125   20.4667    106.6663   -9999      -9999      1.145      1.0401     -10.6013  
1774.25    20.4706    106.9084   -9999      -9999      1.1312     1.0827     -9.7283   
1774.375   20.4745    106.5446   -9999      -9999      1.1166     1.1051     -9.6657   
1774.5     20.4785    106.0425   -9999      -9999      1.1136     1.0938     -9.4786   
1774.625   20.4823    105.7492   -9999      -9999      1.1133     1.0593     -9.2204   
1774.75    20.486     105.4056   -9999      -9999      1.1076     1.0108     -8.7591   
1774.875   20.4895    104.7419   -9999      -9999      1.093      0.9565     -7.9257   
1775       20.493     103.8304   -9999      -9999      1.0751     0.9019     -6.6431   
1775.125   20.4965    103.8216   -9999      -9999      1.0638     0.8555     -5.0679   
1775.25    20.5       104.3485   -9999      -9999      1.0598     0.813      -3.9231   
1775.375   20.5035    104.8354   -9999      -9999      1.0637     0.7771     -3.4668   
1775.5     20.5066    105.0138   -9999      -9999      1.0709     0.7523     -4.104    
1775.625   20.5091    105.0201   -9999      -9999      1.0732     0.7422     -6.3028   
1775.75    20.5102    106.0275   -9999      -9999      1.0641     0.7358     -10.6496  
1775.875   20.5111    107.6856   -9999      -9999      1.0552     0.7349     -18.5112  
1776       20.5119    109.2821   -9999      -9999      1.0506     0.7367     -24.1039  
1776.125   20.5128    110.3286   -9999      -9999      1.0491     0.7435     -27.3648  
1776.25    20.5135    110.5995   -9999      -9999      1.0482     0.7595     -28.9844  
1776.375   20.5142    110.2456   -9999      -9999      1.0457     0.79       -29.0422  
1776.5     20.5145    110.5417   -9999      -9999      1.0374     0.8327     -27.4974  
1776.625   20.5149    110.4526   -9999      -9999      1.0332     0.8756     -25.7776  
1776.75    20.5152    109.5198   -9999      -9999      1.0378     0.9194     -24.2783  
1776.875   20.5156    108.0568   -9999      -9999      1.0455     0.9642     -23.0991  
1777       20.5161    106.7305   -9999      -9999      1.0468     1.0094     -22.1596  
1777.125   20.5172    105.8634   -9999      -9999      1.0371     1.0494     -21.3953  
1777.25    20.5182    105.0065   -9999      -9999      1.0331     1.0752     -20.7248  
1777.375   20.5177    104.1429   -9999      -9999      1.041      1.0864     -20.0936  
1777.5     20.5163    103.5133   -9999      -9999      1.0606     1.0845     -19.5659  
1777.625   20.5148    103.2145   -9999      -9999      1.0893     1.0753     -19.185   
1777.75    20.5133    103.1147   -9999      -9999      1.1229     1.0687     -18.9406  
1777.875   20.5117    103.4752   -9999      -9999      1.1544     1.0748     -18.6971  
1778       20.5102    104.4173   -9999      -9999      1.1786     1.0831     -18.3001  
1778.125   20.5087    105.4126   -9999      -9999      1.1978     1.0786     -17.8394  
1778.25    20.5071    106.2488   -9999      -9999      1.2119     1.0686     -17.3099  
1778.375   20.5057    106.8883   -9999      -9999      1.2187     1.0686     -16.7411  
1778.5     20.5041    107.396    -9999      -9999      1.2114     1.0911     -16.4003  
1778.625   20.5025    107.6219   -9999      -9999      1.1943     1.1017     -16.1802  
1778.75    20.5008    107.1354   -9999      -9999      1.1824     1.1033     -15.9812  
1778.875   20.499     106.0298   -9999      -9999      1.1741     1.1055     -15.7385  
1779       20.4972    104.7516   -9999      -9999      1.1643     1.1052     -15.3073  
1779.125   20.4955    104.0015   -9999      -9999      1.1464     1.0856     -14.5252  
1779.25    20.4937    104.358    -9999      -9999      1.1145     1.0205     -13.8593  
1779.375   20.492     105.1387   -9999      -9999      1.0728     0.9946     -13.3161  
1779.5     20.4902    105.5675   -9999      -9999      1.0271     0.9935     -12.8259  
1779.625   20.4885    105.4468   -9999      -9999      0.9799     1.0048     -12.4237  
1779.75    20.4867    104.8627   -9999      -9999      0.9331     1.0156     -12.2636  
1779.875   20.485     104.0987   -9999      -9999      0.8893     1.0128     -12.7165  
1780       20.4832    103.2563   -9999      -9999      0.8537     0.9603     -14.7976  
1780.125   20.4815    102.525    -9999      -9999      0.8249     0.8786     -15.7544  
1780.25    20.4802    102.08     -9999      -9999      0.8021     0.7898     -16.0588  
1780.375   20.4789    102.0665   -9999      -9999      0.7868     0.7013     -16.2173  
1780.5     20.4777    102.6167   -9999      -9999      0.7828     0.6093     -16.6646  
1780.625   20.4766    104.1615   -9999      -9999      0.7957     0.5241     -18.2558  
1780.75    20.4753    106.1328   -9999      -9999      0.829      0.447      -22.6437  
1780.875   20.4742    107.5921   -9999      -9999      0.8869     0.3867     -29.2187  
1781       20.473     108.6086   -9999      -9999      0.9661     0.3341     -39.8862  
1781.125   20.4718    109.446    -9999      -9999      1.0585     0.2848     -54.4948  
1781.25    20.4706    110.2555   -9999      -9999      1.152      0.2519     -68.4138  
1781.375   20.4693    111.0458   -9999      -9999      1.2382     0.2363     -77.2592  
1781.5     20.4677    111.7478   -9999      -9999      1.3254     0.2216     -82.992   
1781.625   20.466     111.9809   -9999      -9999      1.3858     0.2033     -86.4988  
