~Version
 VERS              .         2.0                           : CWLS LOG ASCII STANDARD - VERSION 2.0
 WRAP              .         NO                            : ONE LINE PER DEPTH STEP
 DLM               .         SPACE                         : DELIMITING CHARACTER(SPACE TAB OR COMMA)
~Well Information
#_______________________________________________________________________________
#
#PARAMETER_NAME    .UNIT     VALUE                         : DESCRIPTION
#_______________________________________________________________________________
STRT               .M        30                            : First reference value
STOP               .M        3440                          : Last reference value
STEP               .M        0.125                         : Step increment
NULL               .         -9999                         : Missing value
COMP               .         	                           : Company
WELL               .         trial-1                       : Well name
FLD                .         trial                         : Field
LOC                .         UNKNOWN                       : Location
CNTY               .                             		   : County
STAT               .                              		   : State
CTRY               .                                 	   : Country
SRVC               .         UNKNOWN                       : Service Company
DATE               .         UNKNOWN                       : Date
UWI                .         20570423                      : Unique Well ID
YCOORD             .                 				       : SURFACE Y
LON                .                          			   : LONGITUDE
XCOORD             .                 				       : SURFACE X
LAT                .         		                       : LATITUDE
ELEV_TYPE          .         KB                            : ELEV TYPE
ELEV               .M        7.7600                        : SURFACE ELEV
group              .         trial                       : 
ORIGINALWELLNAME   .         trial-1                     : 
~Parameter Information Block
#_______________________________________________________________________________
#
#PARAMETER_NAME    .UNIT     VALUE                         : DESCRIPTION
#_______________________________________________________________________________
SET                .         Curvas_Basicas_Editadas_OW    : 
TLFamily_CALI_Edit .         Caliper                       : 
TLFamily_DT_Edit   .         Compressional Slowness        : 
TLFamily_GR_Edit   .         Gamma Ray                     : 
TLFamily_RM_Edit   .         Mud Resistivity               : 
TLFamily_DEPTH     .         Measured Depth                : 
TLFamily_SP_Edit   .         Spontaneous Potential         : 
TLFamily_RT_Edit   .         Formation Resistivity         : 
TLFamily_NPHI_Edit .         Neutron Porosity              : 
~Curve Information
#_______________________________________________________________________________
#
#LOGNAME           .UNIT     LOG_ID                        : DESCRIPTION
#_______________________________________________________________________________
DEPTH              .M                                      : Measured Depth 
CALI_Edit          .inches                                 : v1 
DT_Edit            .us/ft                                  : v1 
GR_Edit            .API                                    : v1 
NPHI_Edit          .v/v_decimal                            : v1 
RM_Edit            .ohm.m                                  : v1 
RT_Edit            .ohm.m                                  : v1 
SP_Edit            .mV                                     : v1 
~Ascii
# ...
1406.375   20.6794    111.4578   -9999      -9999      1.1056     0.5365     -42.1534  
1406.5     20.6828    109.7864   -9999      -9999      1.1111     0.6136     -37.0343  
1406.625   20.6738    108.9241   -9999      -9999      1.0307     0.7043     -23.8268  
1406.75    20.6518    109.2234   -9999      -9999      0.941      0.7999     -14.2701  
1406.875   20.6253    110.6946   -9999      -9999      0.8732     0.8841     -7.9545   
1407       20.5996    112.9898   -9999      -9999      0.8441     0.9441     -4.3772   
1407.125   20.5782    115.602    -9999      -9999      0.8609     0.9652     -2.7862   
1407.25    20.567     118.2227   -9999      -9999      0.9325     0.9038     -1.8327   
1407.375   20.5573    120.4036   -9999      -9999      1.0363     0.832      -1.7339   
1407.5     20.548     122.0481   -9999      -9999      1.1474     0.7818     -1.9793   
1407.625   20.5407    123.2192   -9999      -9999      1.2345     0.7778     -2.6786   
1407.75    20.5377    123.9134   -9999      -9999      1.2719     0.827      -3.847    
1407.875   20.5412    123.9588   -9999      -9999      1.2482     0.914      -5.299    
1408       20.5456    121.9122   -9999      -9999      1.2323     1.0174     -7.3087   
1408.125   20.5486    118.3265   -9999      -9999      1.2575     1.1055     -9.6772   
1408.25    20.5506    114.7346   -9999      -9999      1.3111     1.1413     -11.8052  
1408.375   20.552     112.0457   -9999      -9999      1.3747     1.1138     -13.7685  
1408.5     20.5532    110.5383   -9999      -9999      1.4236     1.0338     -15.3304  
1408.625   20.5544    109.4127   -9999      -9999      1.4183     0.9389     -14.2287  
1408.75    20.5557    109.4159   -9999      -9999      1.3644     0.8673     -10.1534  
1408.875   20.5569    110.5867   -9999      -9999      1.2956     0.878      -7.1685   
1409       20.5576    111.9836   -9999      -9999      1.2242     0.9425     -5.0685   
1409.125   20.5578    113.0217   -9999      -9999      1.1578     1.0265     -3.4286   
1409.25    20.5576    113.6646   -9999      -9999      1.1004     1.1001     -2.0201   
1409.375   20.5573    114.0969   -9999      -9999      1.0675     1.1231     -0.9932   
1409.5     20.5576    114.9498   -9999      -9999      1.063      1.1177     -0.2242   
1409.625   20.5594    115.5083   -9999      -9999      1.0738     1.0927     0.2053    
1409.75    20.5628    115.043    -9999      -9999      1.09       1.0588     0.208     
1409.875   20.5672    113.5594   -9999      -9999      1.1025     1.0252     -0.2467   
1410       20.5724    112.8797   -9999      -9999      1.102      0.9942     -1.0889   
1410.125   20.5828    113.9651   -9999      -9999      1.0871     0.9698     -2.2439   
1410.25    20.6       114.8384   -9999      -9999      1.0662     0.9436     -3.3344   
1410.375   20.6181    114.9422   -9999      -9999      1.0514     0.9191     -4.3013   
1410.5     20.6302    114.025    -9999      -9999      1.0519     0.8999     -5.051    
1410.625   20.6308    112.3029   -9999      -9999      1.0705     0.8889     -5.4532   
1410.75    20.6254    112.0288   -9999      -9999      1.0868     0.8846     -5.268    
1410.875   20.6202    112.7206   -9999      -9999      1.088      0.9015     -5.2689   
1411       20.6165    112.9572   -9999      -9999      1.0834     0.9209     -5.8174   
1411.125   20.614     112.4521   -9999      -9999      1.0786     0.9348     -6.8298   
1411.25    20.612     111.6411   -9999      -9999      1.0769     0.9401     -8.1172   
1411.375   20.61      111.77     -9999      -9999      1.079      0.9376     -9.5411   
1411.5     20.6083    112.2156   -9999      -9999      1.0862     0.9221     -10.6338  
1411.625   20.6077    112.4886   -9999      -9999      1.088      0.9006     -11.4083  
1411.75    20.6081    112.2577   -9999      -9999      1.0816     0.88       -11.6219  
1411.875   20.6072    111.5573   -9999      -9999      1.0716     0.8664     -11.3654  
1412       20.6025    110.6498   -9999      -9999      1.0668     0.8623     -10.9416  
1412.125   20.5969    109.7046   -9999      -9999      1.0742     0.8575     -10.683   
1412.25    20.5912    108.6811   -9999      -9999      1.0909     0.848      -10.9469  
1412.375   20.5856    107.5595   -9999      -9999      1.1089     0.8376     -11.8033  
1412.5     20.5805    106.3961   -9999      -9999      1.1208     0.8296     -12.7756  
1412.625   20.5774    105.2982   -9999      -9999      1.1206     0.8303     -13.3338  
1412.75    20.5782    104.4227   -9999      -9999      1.1056     0.8492     -13.0785  
1412.875   20.5799    104.0389   -9999      -9999      1.0767     0.8767     -12.0531  
1413       20.5816    104.3618   -9999      -9999      1.0449     0.897      -10.9526  
1413.125   20.5832    105.3027   -9999      -9999      1.0165     0.8949     -10.0819  
1413.25    20.5844    106.7586   -9999      -9999      0.9973     0.8781     -9.428    
1413.375   20.5844    108.7857   -9999      -9999      0.9929     0.8662     -8.8696   
1413.5     20.5818    112.22     -9999      -9999      1.0094     0.8797     -8.4927   
1413.625   20.5788    117.0643   -9999      -9999      1.0428     0.9126     -8.2491   
1413.75    20.5758    120.7088   -9999      -9999      1.0841     0.9337     -8.11     
1413.875   20.5729    123.5741   -9999      -9999      1.1303     0.9346     -8.1206   
1414       20.57      125.9468   -9999      -9999      1.1794     0.9189     -8.2636   
1414.125   20.5672    127.5051   -9999      -9999      1.2295     0.9028     -8.4557   
1414.25    20.5649    127.69     -9999      -9999      1.2709     0.9261     -8.7935   
1414.375   20.5626    126.0315   -9999      -9999      1.2979     0.9581     -9.16     
1414.5     20.5604    123.6206   -9999      -9999      1.3105     0.9803     -9.5822   
1414.625   20.5581    121.1457   -9999      -9999      1.3061     0.9938     -9.908    
1414.75    20.5559    119.0533   -9999      -9999      1.2822     1.0057     -9.8908   
1414.875   20.5539    117.5269   -9999      -9999      1.2379     1.0179     -9.1872   
1415       20.553     116.9823   -9999      -9999      1.201      1.0295     -8.1563   
1415.125   20.5525    117.4879   -9999      -9999      1.1907     1.0357     -7.132    
1415.25    20.5522    118.4114   -9999      -9999      1.1932     1.0283     -6.1199   
1415.375   20.5519    119.4017   -9999      -9999      1.1881     1.0027     -5.1029   
1415.5     20.5516    120.4511   -9999      -9999      1.1551     0.9595     -4.0698   
1415.625   20.5514    121.4683   -9999      -9999      1.0894     0.9097     -3.0855   
1415.75    20.5523    122.1154   -9999      -9999      1.026      0.8613     -2.1826   
1415.875   20.5551    121.2927   -9999      -9999      0.9864     0.8091     -1.4483   
1416       20.5592    118.2356   -9999      -9999      0.9763     0.7662     -1.6279   
1416.125   20.5634    113.7695   -9999      -9999      0.9972     0.7475     -3.5265   
1416.25    20.5677    111.8815   -9999      -9999      1.0517     0.7591     -7.7024   
1416.375   20.5719    110.8763   -9999      -9999      1.1407     0.7918     -11.1273  
1416.5     20.5758    110.1602   -9999      -9999      1.2243     0.8229     -13.8404  
1416.625   20.5792    110.238    -9999      -9999      1.2831     0.8463     -16.0497  
1416.75    20.5821    111.5991   -9999      -9999      1.3097     0.8645     -16.763   
1416.875   20.585     114.3083   -9999      -9999      1.307      0.8883     -14.408   
1417       20.5878    116.1036   -9999      -9999      1.2869     0.9458     -8.4759   
1417.125   20.5899    116.7962   -9999      -9999      1.2584     1.0014     -4.9092   
1417.25    20.5905    117.0736   -9999      -9999      1.2412     1.0467     -2.9499   
1417.375   20.5903    117.2792   -9999      -9999      1.2504     1.0863     -2.2405   
1417.5     20.5899    117.6032   -9999      -9999      1.2933     1.1244     -2.6737   
1417.625   20.5895    118.0585   -9999      -9999      1.3661     1.1592     -4.4852   
