~Version
 VERS              .         2.0                           : CWLS LOG ASCII STANDARD - VERSION 2.0
 WRAP              .         NO                            : ONE LINE PER DEPTH STEP
 DLM               .         SPACE                         : DELIMITING CHARACTER(SPACE TAB OR COMMA)
~Well Information
#_______________________________________________________________________________
#
#PARAMETER_NAME    .UNIT     VALUE                         : DESCRIPTION
#_______________________________________________________________________________
STRT               .M        30                            : First reference value
STOP               .M        3440                          : Last reference value
STEP               .M        0.125                         : Step increment
NULL               .         -9999                         : Missing value
COMP               .         	                           : Company
WELL               .         trial-1                       : Well name
FLD                .         trial                         : Field
LOC                .         UNKNOWN                       : Location
CNTY               .                             		   : County
STAT               .                              		   : State
CTRY               .                                 	   : Country
SRVC               .         UNKNOWN                       : Service Company
DATE               .         UNKNOWN                       : Date
UWI                .         20570423                      : Unique Well ID
YCOORD             .                 				       : SURFACE Y
LON                .                          			   : LONGITUDE
XCOORD             .                 				       : SURFACE X
LAT                .         		                       : LATITUDE
ELEV_TYPE          .         KB                            : ELEV TYPE
ELEV               .M        7.7600                        : SURFACE ELEV
group              .         trial                       : 
ORIGINALWELLNAME   .         trial-1                     : 
~Parameter Information Block
#_______________________________________________________________________________
#
#PARAMETER_NAME    .UNIT     VALUE                         : DESCRIPTION
#_______________________________________________________________________________
SET                .         Curvas_Basicas_Editadas_OW    : 
TLFamily_CALI_Edit .         Caliper                       : 
TLFamily_DT_Edit   .         Compressional Slowness        : 
TLFamily_GR_Edit   .         Gamma Ray                     : 
TLFamily_RM_Edit   .         Mud Resistivity               : 
TLFamily_DEPTH     .         Measured Depth                : 
TLFamily_SP_Edit   .         Spontaneous Potential         : 
TLFamily_RT_Edit   .         Formation Resistivity         : 
TLFamily_NPHI_Edit .         Neutron Porosity              : 
~Curve Information
#_______________________________________________________________________________
#
#LOGNAME           .UNIT     LOG_ID                        : DESCRIPTION
#_______________________________________________________________________________
DEPTH              .M                                      : Measured Depth 
CALI_Edit          .inches                                 : v1 
DT_Edit            .us/ft                                  : v1 
GR_Edit            .API                                    : v1 
NPHI_Edit          .v/v_decimal                            : v1 
RM_Edit            .ohm.m                                  : v1 
RT_Edit            .ohm.m                                  : v1 
SP_Edit            .mV                                     : v1 
~Ascii
# ...
2873.75    16.8566    90.209     -9999      -9999      2.7429     1.348      -31.2858  
2873.875   16.8569    89.4079    -9999      -9999      2.4904     1.2815     -30.1814  
2874       16.8572    88.6605    -9999      -9999      2.2339     1.1867     -28.4262  
2874.125   16.8575    88.0252    -9999      -9999      2.0352     1.0675     -26.3684  
2874.25    16.8579    87.582     -9999      -9999      1.8623     0.9118     -24.1766  
2874.375   16.8582    87.6867    -9999      -9999      1.6655     0.7293     -21.9986  
2874.5     16.8585    88.1928    -9999      -9999      1.4485     0.5578     -20.37    
2874.625   16.8587    88.8305    -9999      -9999      1.2373     0.423      -19.2205  
2874.75    16.8588    89.3895    -9999      -9999      1.0569     0.3367     -18.4087  
2874.875   16.8587    89.8152    -9999      -9999      0.9222     0.2926     -17.8764  
2875       16.8585    90.15      -9999      -9999      0.8799     0.2703     -17.9271  
2875.125   16.8582    90.4862    -9999      -9999      0.9471     0.2624     -18.1651  
2875.25    16.858     90.8443    -9999      -9999      1.0953     0.2705     -18.6365  
2875.375   16.8578    91.2178    -9999      -9999      1.2912     0.2909     -19.3013  
2875.5     16.8576    91.578     -9999      -9999      1.4999     0.317      -20.0164  
2875.625   16.8573    91.8491    -9999      -9999      1.6895     0.3413     -20.3957  
2875.75    16.8573    91.6556    -9999      -9999      1.8345     0.3619     -20.5335  
2875.875   16.8577    90.8279    -9999      -9999      1.9471     0.3811     -20.6531  
2876       16.8585    89.7553    -9999      -9999      2.0359     0.4018     -20.8997  
2876.125   16.8597    88.7944    -9999      -9999      2.1061     0.4255     -21.4181  
2876.25    16.8608    88.1257    -9999      -9999      2.1581     0.4525     -22.327   
2876.375   16.862     87.7154    -9999      -9999      2.189      0.4804     -23.3605  
2876.5     16.8631    87.5325    -9999      -9999      2.2045     0.5042     -23.9433  
2876.625   16.8643    87.6377    -9999      -9999      2.2052     0.5201     -24.6129  
2876.75    16.8654    87.9973    -9999      -9999      2.1944     0.5288     -25.695   
2876.875   16.8666    88.532     -9999      -9999      2.1776     0.5348     -27.4843  
2877       16.8675    89.1587    -9999      -9999      2.1632     0.5464     -30.5142  
2877.125   16.8682    89.8748    -9999      -9999      2.1686     0.5771     -33.4343  
2877.25    16.8686    90.5881    -9999      -9999      2.2006     0.6269     -35.8065  
2877.375   16.869     91.1534    -9999      -9999      2.2562     0.6879     -37.9458  
2877.5     16.8693    91.372     -9999      -9999      2.326      0.7518     -39.9563  
2877.625   16.8697    91.0524    -9999      -9999      2.396      0.8119     -41.6361  
2877.75    16.8706    90.4284    -9999      -9999      2.4486     0.8661     -42.2425  
2877.875   16.8729    90.27      -9999      -9999      2.4676     0.9044     -42.2683  
2878       16.876     90.3962    -9999      -9999      2.4462     0.9207     -42.0663  
2878.125   16.879     90.7967    -9999      -9999      2.3927     0.9171     -41.9578  
2878.25    16.881     91.4294    -9999      -9999      2.323      0.8996     -42.2617  
2878.375   16.8818    92.0812    -9999      -9999      2.259      0.8751     -43.3077  
2878.5     16.8816    91.869     -9999      -9999      2.2148     0.846      -44.9799  
2878.625   16.8815    90.7984    -9999      -9999      2.1884     0.8178     -46.6257  
2878.75    16.8814    89.3187    -9999      -9999      2.1869     0.797      -47.9887  
2878.875   16.8812    87.7285    -9999      -9999      2.2149     0.7884     -48.7169  
2879       16.8811    86.1134    -9999      -9999      2.2717     0.7947     -48.5656  
2879.125   16.8809    84.091     -9999      -9999      2.3446     0.817      -48.3462  
2879.25    16.8806    83.356     -9999      -9999      2.4216     0.8534     -49.3545  
2879.375   16.8803    83.4152    -9999      -9999      2.4992     0.8996     -52.8367  
2879.5     16.88      83.7995    -9999      -9999      2.5728     0.9538     -56.6392  
2879.625   16.8797    84.2504    -9999      -9999      2.634      1.0154     -59.0473  
2879.75    16.8795    84.9261    -9999      -9999      2.6701     1.0847     -60.5264  
2879.875   16.8799    85.4897    -9999      -9999      2.6461     1.1596     -62.1376  
2880       16.8815    86.2217    -9999      -9999      2.5805     1.2371     -64.1639  
2880.125   16.8838    87.12      -9999      -9999      2.4931     1.3156     -66.7762  
2880.25    16.8864    88.0233    -9999      -9999      2.4043     1.3932     -70.1904  
2880.375   16.889     88.7248    -9999      -9999      2.3308     1.4682     -74.7193  
2880.5     16.8918    89.2293    -9999      -9999      2.273      1.5372     -81.2217  
2880.625   16.8953    89.5242    -9999      -9999      2.2212     1.5998     -87.0834  
2880.75    16.8994    89.7519    -9999      -9999      2.1787     1.6625     -90.9771  
2880.875   16.904     89.9832    -9999      -9999      2.1454     1.7279     -93.5907  
2881       16.9087    90.2617    -9999      -9999      2.1192     1.7946     -95.4334  
2881.125   16.9134    90.5996    -9999      -9999      2.097      1.8561     -96.311   
2881.25    16.918     90.9137    -9999      -9999      2.0732     1.9033     -96.8438  
2881.375   16.9222    90.8654    -9999      -9999      2.0497     1.9405     -97.3391  
2881.5     16.9257    90.3364    -9999      -9999      2.0275     1.9647     -97.8948  
2881.625   16.928     89.6128    -9999      -9999      2.0074     1.9723     -98.5691  
2881.75    16.9286    89.0511    -9999      -9999      1.9916     1.9623     -99.4074  
2881.875   16.9276    88.5684    -9999      -9999      1.9857     1.9396     -100.499  
2882       16.9244    88.353     -9999      -9999      1.9938     1.9103     -101.3787 
2882.125   16.9201    88.9922    -9999      -9999      2.0113     1.8731     -101.78   
2882.25    16.9155    90.3532    -9999      -9999      2.0364     1.8234     -101.4381 
2882.375   16.911     91.7185    -9999      -9999      2.0693     1.757      -99.7383  
2882.5     16.9064    91.9591    -9999      -9999      2.1129     1.6706     -95.8486  
2882.625   16.9025    90.9475    -9999      -9999      2.1764     1.5635     -90.2463  
2882.75    16.901     89.7138    -9999      -9999      2.2577     1.452      -83.5627  
2882.875   16.9017    88.3677    -9999      -9999      2.3586     1.3474     -77.5246  
2883       16.9033    86.8411    -9999      -9999      2.474      1.2537     -72.2444  
2883.125   16.9049    84.8945    -9999      -9999      2.5913     1.1705     -67.4123  
2883.25    16.9062    81.9661    -9999      -9999      2.6863     1.093      -63.1014  
2883.375   16.9066    77.9262    -9999      -9999      2.7488     1.02       -59.4479  
2883.5     16.9065    75.8443    -9999      -9999      2.7767     0.953      -56.639   
2883.625   16.9062    77.0037    -9999      -9999      2.7598     0.8944     -54.3211  
2883.75    16.9059    80.4057    -9999      -9999      2.7006     0.8458     -52.2213  
2883.875   16.9056    83.4247    -9999      -9999      2.6129     0.8075     -50.2324  
2884       16.9053    85.2635    -9999      -9999      2.5193     0.7844     -48.7155  
2884.125   16.9048    86.7144    -9999      -9999      2.4308     0.7808     -48.6072  
2884.25    16.904     88.0106    -9999      -9999      2.353      0.7948     -51.0875  
2884.375   16.903     89.0943    -9999      -9999      2.2914     0.8251     -56.1536  
2884.5     16.9019    89.7757    -9999      -9999      2.2485     0.8685     -62.3578  
2884.625   16.9007    89.745     -9999      -9999      2.2224     0.9202     -66.3107  
2884.75    16.8997    89.389     -9999      -9999      2.2086     0.971      -68.8632  
2884.875   16.8985    89.0327    -9999      -9999      2.1957     1.024      -70.1384  
2885       16.8973    88.695     -9999      -9999      2.1796     1.0774     -70.9888  
