~Version
 VERS              .         2.0                           : CWLS LOG ASCII STANDARD - VERSION 2.0
 WRAP              .         NO                            : ONE LINE PER DEPTH STEP
 DLM               .         SPACE                         : DELIMITING CHARACTER(SPACE TAB OR COMMA)
~Well Information
#_______________________________________________________________________________
#
#PARAMETER_NAME    .UNIT     VALUE                         : DESCRIPTION
#_______________________________________________________________________________
STRT               .M        30                            : First reference value
STOP               .M        3440                          : Last reference value
STEP               .M        0.125                         : Step increment
NULL               .         -9999                         : Missing value
COMP               .         	                           : Company
WELL               .         trial-1                       : Well name
FLD                .         trial                         : Field
LOC                .         UNKNOWN                       : Location
CNTY               .                             		   : County
STAT               .                              		   : State
CTRY               .                                 	   : Country
SRVC               .         UNKNOWN                       : Service Company
DATE               .         UNKNOWN                       : Date
UWI                .         20570423                      : Unique Well ID
YCOORD             .                 				       : SURFACE Y
LON                .                          			   : LONGITUDE
XCOORD             .                 				       : SURFACE X
LAT                .         		                       : LATITUDE
ELEV_TYPE          .         KB                            : ELEV TYPE
ELEV               .M        7.7600                        : SURFACE ELEV
group              .         trial                       : 
ORIGINALWELLNAME   .         trial-1                     : 
~Parameter Information Block
#_______________________________________________________________________________
#
#PARAMETER_NAME    .UNIT     VALUE                         : DESCRIPTION
#_______________________________________________________________________________
SET                .         Curvas_Basicas_Editadas_OW    : 
TLFamily_CALI_Edit .         Caliper                       : 
TLFamily_DT_Edit   .         Compressional Slowness        : 
TLFamily_GR_Edit   .         Gamma Ray                     : 
TLFamily_RM_Edit   .         Mud Resistivity               : 
TLFamily_DEPTH     .         Measured Depth                : 
TLFamily_SP_Edit   .         Spontaneous Potential         : 
TLFamily_RT_Edit   .         Formation Resistivity         : 
TLFamily_NPHI_Edit .         Neutron Porosity              : 
~Curve Information
#_______________________________________________________________________________
#
#LOGNAME           .UNIT     LOG_ID                        : DESCRIPTION
#_______________________________________________________________________________
DEPTH              .M                                      : Measured Depth 
CALI_Edit          .inches                                 : v1 
DT_Edit            .us/ft                                  : v1 
GR_Edit            .API                                    : v1 
NPHI_Edit          .v/v_decimal                            : v1 
RM_Edit            .ohm.m                                  : v1 
RT_Edit            .ohm.m                                  : v1 
SP_Edit            .mV                                     : v1 
~Ascii
# ...
3237.75    17.2462    122.5798   -9999      -9999      1.2863     1.3739     -4.9244   
3237.875   17.2254    118.0801   -9999      -9999      1.3073     1.3652     -5.0365   
3238       17.2742    113.2129   -9999      -9999      1.333      1.343      -5.1393   
3238.125   17.538     109.7894   -9999      -9999      1.358      1.3245     -5.2869   
3238.25    18.0158    106.7611   -9999      -9999      1.3788     1.315      -5.5294   
3238.375   18.5863    102.9384   -9999      -9999      1.3918     1.3156     -5.8635   
3238.5     18.9963    98.0636    -9999      -9999      1.3926     1.3235     -6.2003   
3238.625   19.2349    95.4856    -9999      -9999      1.3776     1.3376     -6.5054   
3238.75    19.3899    96.4757    -9999      -9999      1.3598     1.3528     -6.7105   
3238.875   19.4799    97.9284    -9999      -9999      1.3492     1.3674     -6.8173   
3239       19.5133    98.867     -9999      -9999      1.3504     1.3809     -6.8289   
3239.125   19.4944    99.6089    -9999      -9999      1.3634     1.3934     -6.7341   
3239.25    19.4261    100.1099   -9999      -9999      1.3815     1.405      -6.4352   
3239.375   19.3631    100.0539   -9999      -9999      1.3936     1.4157     -6.0733   
3239.5     19.3211    100.0069   -9999      -9999      1.3987     1.4255     -5.7273   
3239.625   19.2514    100.0257   -9999      -9999      1.3961     1.4345     -5.4023   
3239.75    19.119     100.0831   -9999      -9999      1.3854     1.4424     -5.1045   
3239.875   18.9263    100.1394   -9999      -9999      1.3666     1.4487     -4.8559   
3240       18.7844    100.1903   -9999      -9999      1.344      1.4499     -4.7183   
3240.125   18.827     100.2353   -9999      -9999      1.3213     1.443      -4.7171   
3240.25    19.0622    100.2773   -9999      -9999      1.3009     1.4302     -4.8107   
3240.375   19.3714    100.3176   -9999      -9999      1.2856     1.4152     -5.0126   
3240.5     19.6057    100.3561   -9999      -9999      1.2773     1.4029     -5.332    
3240.625   19.7049    100.3929   -9999      -9999      1.2756     1.4005     -5.6935   
3240.75    19.7517    100.3905   -9999      -9999      1.2805     1.4157     -5.995    
3240.875   19.743     100.2915   -9999      -9999      1.2892     1.4357     -6.2269   
3241       19.6043    100.0935   -9999      -9999      1.2973     1.448      -6.4428   
3241.125   19.3071    99.8124    -9999      -9999      1.3004     1.444      -6.6822   
3241.25    18.8989    99.4813    -9999      -9999      1.2945     1.4207     -6.9569   
3241.375   18.6866    99.2224    -9999      -9999      1.2776     1.385      -7.243    
3241.5     18.6772    99.0736    -9999      -9999      1.2565     1.3562     -7.404    
3241.625   18.7443    98.978     -9999      -9999      1.2369     1.3424     -7.4236   
3241.75    18.804     98.9106    -9999      -9999      1.2214     1.3444     -7.3213   
3241.875   18.8083    98.8595    -9999      -9999      1.211      1.359      -7.1516   
3242       18.7667    98.8228    -9999      -9999      1.2051     1.3799     -7.0168   
3242.125   18.6472    98.8006    -9999      -9999      1.2028     1.4041     -6.964    
3242.25    18.5239    98.8082    -9999      -9999      1.2024     1.4288     -6.9478   
3242.375   18.4435    98.859     -9999      -9999      1.204      1.4534     -6.8833   
3242.5     18.3955    98.9303    -9999      -9999      1.2079     1.4765     -6.7481   
3242.625   18.3273    98.9762    -9999      -9999      1.2146     1.496      -6.5785   
3242.75    18.2235    99.0054    -9999      -9999      1.2258     1.5077     -6.4361   
3242.875   18.1512    99.0296    -9999      -9999      1.2355     1.5114     -6.3686   
3243       18.2701    99.0457    -9999      -9999      1.2387     1.506      -6.4499   
3243.125   18.5698    99.0577    -9999      -9999      1.2372     1.4891     -6.6996   
3243.25    18.9089    99.0693    -9999      -9999      1.2358     1.4606     -7        
3243.375   18.9972    99.0811    -9999      -9999      1.2414     1.4241     -7.0151   
3243.5     18.8608    99.0927    -9999      -9999      1.2556     1.4048     -6.8982   
3243.625   18.6769    99.105     -9999      -9999      1.2724     1.4041     -6.7803   
3243.75    18.5239    99.1193    -9999      -9999      1.2905     1.4128     -6.7278   
3243.875   18.4266    99.1352    -9999      -9999      1.3105     1.4242     -6.7811   
3244       18.3711    99.1518    -9999      -9999      1.3338     1.4336     -6.9495   
3244.125   18.3403    99.169     -9999      -9999      1.3593     1.4346     -7.1877   
3244.25    18.3313    -9999      -9999      -9999      1.381      1.4248     -7.3448   
3244.375   18.3254    -9999      -9999      -9999      1.4031     1.4177     -7.3412   
3244.5     18.3206    -9999      -9999      -9999      1.427      1.4194     -7.1037   
3244.625   18.3184    -9999      -9999      -9999      1.4507     1.4307     -6.6498   
3244.75    18.3204    -9999      -9999      -9999      1.4691     1.4459     -6.1278   
3244.875   18.3229    -9999      -9999      -9999      -9999      1.4609     -5.5858   
3245       18.3259    -9999      -9999      -9999      -9999      1.4704     -5.0528   
3245.125   18.3292    -9999      -9999      -9999      -9999      1.4739     -4.5503   
3245.25    18.3317    -9999      -9999      -9999      -9999      1.4751     -4.1078   
3245.375   18.332     -9999      -9999      -9999      -9999      1.4792     -3.7551   
3245.5     18.3297    -9999      -9999      -9999      -9999      1.4883     -3.5392   
3245.625   18.3274    -9999      -9999      -9999      -9999      1.4964     -3.8645   
3245.75    18.325     -9999      -9999      -9999      -9999      1.503      -4.4122   
3245.875   18.3226    -9999      -9999      -9999      -9999      1.5071     -5.092    
3246       18.3201    -9999      -9999      -9999      -9999      1.5064     -5.8557   
3246.125   18.3173    -9999      -9999      -9999      -9999      1.4976     -6.6544   
3246.25    18.3142    -9999      -9999      -9999      -9999      1.4769     -7.3496   
3246.375   18.3112    -9999      -9999      -9999      -9999      1.4551     -7.9198   
3246.5     18.3085    -9999      -9999      -9999      -9999      1.44       -8.4421   
3246.625   18.306     -9999      -9999      -9999      -9999      1.4348     -8.9539   
3246.75    18.3039    -9999      -9999      -9999      -9999      1.4402     -9.4656   
3246.875   18.3017    -9999      -9999      -9999      -9999      1.4555     -9.9494   
3247       18.2994    -9999      -9999      -9999      -9999      1.4758     -10.3731  
3247.125   18.2968    -9999      -9999      -9999      -9999      1.49       -10.7804  
3247.25    18.294     -9999      -9999      -9999      -9999      1.4925     -11.1822  
3247.375   18.291     -9999      -9999      -9999      -9999      1.484      -11.5836  
3247.5     18.2884    -9999      -9999      -9999      -9999      1.4709     -11.9426  
3247.625   18.287     -9999      -9999      -9999      -9999      1.4672     -11.0215  
3247.75    18.2865    -9999      -9999      -9999      -9999      1.4771     -10.0971  
3247.875   18.2862    -9999      -9999      -9999      -9999      1.4933     -9.1716   
3248       18.2859    -9999      -9999      -9999      -9999      1.5088     -8.2413   
3248.125   18.2858    -9999      -9999      -9999      -9999      1.5178     -7.2998   
3248.25    18.2866    -9999      -9999      -9999      -9999      1.5177     -6.3374   
3248.375   18.2898    -9999      -9999      -9999      -9999      1.5105     -5.3674   
3248.5     18.2944    -9999      -9999      -9999      -9999      1.5089     -4.3968   
3248.625   18.2983    -9999      -9999      -9999      -9999      1.514      -3.4261   
3248.75    18.3005    -9999      -9999      -9999      -9999      1.5226     -2.4556   
3248.875   18.3013    -9999      -9999      -9999      -9999      1.5295     -1.4885   
3249       18.3027    -9999      -9999      -9999      -9999      1.534      -0.5567   
