~Version
 VERS              .         2.0                           : CWLS LOG ASCII STANDARD - VERSION 2.0
 WRAP              .         NO                            : ONE LINE PER DEPTH STEP
 DLM               .         SPACE                         : DELIMITING CHARACTER(SPACE TAB OR COMMA)
~Well Information
#_______________________________________________________________________________
#
#PARAMETER_NAME    .UNIT     VALUE                         : DESCRIPTION
#_______________________________________________________________________________
STRT               .M        30                            : First reference value
STOP               .M        3440                          : Last reference value
STEP               .M        0.125                         : Step increment
NULL               .         -9999                         : Missing value
COMP               .         	                           : Company
WELL               .         trial-1                       : Well name
FLD                .         trial                         : Field
LOC                .         UNKNOWN                       : Location
CNTY               .                             		   : County
STAT               .                              		   : State
CTRY               .                                 	   : Country
SRVC               .         UNKNOWN                       : Service Company
DATE               .         UNKNOWN                       : Date
UWI                .         20570423                      : Unique Well ID
YCOORD             .                 				       : SURFACE Y
LON                .                          			   : LONGITUDE
XCOORD             .                 				       : SURFACE X
LAT                .         		                       : LATITUDE
ELEV_TYPE          .         KB                            : ELEV TYPE
ELEV               .M        7.7600                        : SURFACE ELEV
group              .         trial                       : 
ORIGINALWELLNAME   .         trial-1                     : 
~Parameter Information Block
#_______________________________________________________________________________
#
#PARAMETER_NAME    .UNIT     VALUE                         : DESCRIPTION
#_______________________________________________________________________________
SET                .         Curvas_Basicas_Editadas_OW    : 
TLFamily_CALI_Edit .         Caliper                       : 
TLFamily_DT_Edit   .         Compressional Slowness        : 
TLFamily_GR_Edit   .         Gamma Ray                     : 
TLFamily_RM_Edit   .         Mud Resistivity               : 
TLFamily_DEPTH     .         Measured Depth                : 
TLFamily_SP_Edit   .         Spontaneous Potential         : 
TLFamily_RT_Edit   .         Formation Resistivity         : 
TLFamily_NPHI_Edit .         Neutron Porosity              : 
~Curve Information
#_______________________________________________________________________________
#
#LOGNAME           .UNIT     LOG_ID                        : DESCRIPTION
#_______________________________________________________________________________
DEPTH              .M                                      : Measured Depth 
CALI_Edit          .inches                                 : v1 
DT_Edit            .us/ft                                  : v1 
GR_Edit            .API                                    : v1 
NPHI_Edit          .v/v_decimal                            : v1 
RM_Edit            .ohm.m                                  : v1 
RT_Edit            .ohm.m                                  : v1 
SP_Edit            .mV                                     : v1 
~Ascii
# ...
1224.375   20.4123    117.2383   -9999      -9999      0.9798     0.6193     -24.164   
1224.5     20.415     118.2754   -9999      -9999      0.8229     0.514      -31.2872  
1224.625   20.4173    119.2136   -9999      -9999      0.6546     0.4226     -38.929   
1224.75    20.419     120.1025   -9999      -9999      0.5144     0.3509     -46.9819  
1224.875   20.4203    120.9497   -9999      -9999      0.4243     0.2987     -56.0617  
1225       20.4215    121.7047   -9999      -9999      0.3852     0.259      -66.4674  
1225.125   20.4226    122.1217   -9999      -9999      0.3681     0.2229     -69.0191  
1225.25    20.4238    122.327    -9999      -9999      0.3677     0.1957     -70.2716  
1225.375   20.4251    122.4847   -9999      -9999      0.3842     0.1721     -71.6808  
1225.5     20.4263    122.6743   -9999      -9999      0.4111     0.151      -73.3841  
1225.625   20.4276    122.9274   -9999      -9999      0.4395     0.1342     -75.0684  
1225.75    20.4291    123.2185   -9999      -9999      0.4618     0.1277     -76.2373  
1225.875   20.4309    123.4372   -9999      -9999      0.4746     0.1299     -75.9783  
1226       20.4327    123.6168   -9999      -9999      0.4728     0.1395     -75.5983  
1226.125   20.4346    123.6563   -9999      -9999      0.455      0.1537     -75.1964  
1226.25    20.4365    123.431    -9999      -9999      0.4272     0.1705     -74.9     
1226.375   20.4384    122.8479   -9999      -9999      0.4001     0.1881     -74.8934  
1226.5     20.4402    122.0224   -9999      -9999      0.3854     0.1972     -75.572   
1226.625   20.4421    121.3285   -9999      -9999      0.381      0.1944     -76.7358  
1226.75    20.4439    120.8732   -9999      -9999      0.3866     0.1815     -77.9128  
1226.875   20.4459    120.6823   -9999      -9999      0.4029     0.1693     -79.4761  
1227       20.4481    120.7116   -9999      -9999      0.4279     0.1663     -81.4884  
1227.125   20.4505    120.8394   -9999      -9999      0.4542     0.1729     -83.2459  
1227.25    20.4528    121.0063   -9999      -9999      0.4744     0.18       -83.3012  
1227.375   20.4552    121.225    -9999      -9999      0.4895     0.1875     -83.1629  
1227.5     20.4575    121.4586   -9999      -9999      0.4957     0.194      -82.9667  
1227.625   20.4599    121.6051   -9999      -9999      0.4911     0.1978     -82.8948  
1227.75    20.462     121.5384   -9999      -9999      0.4758     0.198      -83.0918  
1227.875   20.4636    121.1453   -9999      -9999      0.4535     0.198      -83.4815  
1228       20.4636    120.7454   -9999      -9999      0.4236     0.1979     -84.038   
1228.125   20.4634    120.5478   -9999      -9999      0.3924     0.1964     -83.5619  
1228.25    20.4631    120.5318   -9999      -9999      0.3671     0.1928     -81.9345  
1228.375   20.4628    120.5999   -9999      -9999      0.3527     0.1874     -79.7192  
1228.5     20.4626    120.6147   -9999      -9999      0.3491     0.1826     -78.0273  
1228.625   20.4623    120.5015   -9999      -9999      0.3518     0.1811     -76.2063  
1228.75    20.4616    120.3502   -9999      -9999      0.3586     0.179      -74.6861  
1228.875   20.4598    120.1949   -9999      -9999      0.366      0.1744     -73.4587  
1229       20.4573    120.0486   -9999      -9999      0.3689     0.1679     -72.5501  
1229.125   20.4546    119.9172   -9999      -9999      0.3628     0.1608     -72.0525  
1229.25    20.4519    119.8154   -9999      -9999      0.3466     0.152      -72.2915  
1229.375   20.4493    119.7493   -9999      -9999      0.3275     0.1389     -72.9325  
1229.5     20.4464    119.7024   -9999      -9999      0.3083     0.126      -72.7756  
1229.625   20.443     119.6829   -9999      -9999      0.2892     0.1148     -71.3455  
1229.75    20.439     119.6979   -9999      -9999      0.2706     0.1058     -69.2871  
1229.875   20.4349    119.7553   -9999      -9999      0.2535     0.0991     -68.1157  
1230       20.4307    119.9405   -9999      -9999      0.2389     0.0994     -67.4566  
1230.125   20.4265    120.4859   -9999      -9999      0.2252     0.1069     -66.5173  
1230.25    20.4226    121.0692   -9999      -9999      0.2152     0.1185     -64.7572  
1230.375   20.4194    121.2877   -9999      -9999      0.2131     0.135      -62.0728  
1230.5     20.4171    120.9045   -9999      -9999      0.2219     0.1564     -58.6501  
1230.625   20.4152    120.1487   -9999      -9999      0.2405     0.1794     -54.9672  
1230.75    20.4132    119.4748   -9999      -9999      0.2718     0.2096     -51.4368  
1230.875   20.4112    118.9941   -9999      -9999      0.3186     0.2458     -49.8741  
1231       20.4093    119.032    -9999      -9999      0.3744     0.286      -48.8601  
1231.125   20.4075    119.6878   -9999      -9999      0.4324     0.3305     -47.3862  
1231.25    20.4061    120.812    -9999      -9999      0.4855     0.3801     -45.4228  
1231.375   20.4057    121.931    -9999      -9999      0.5219     0.4291     -46.5744  
1231.5     20.4055    122.9814   -9999      -9999      0.5344     0.4597     -53.3006  
1231.625   20.4052    123.9399   -9999      -9999      0.5311     0.4428     -58.7753  
1231.75    20.405     124.7826   -9999      -9999      0.5114     0.397      -62.8488  
1231.875   20.4048    125.5054   -9999      -9999      0.4729     0.346      -64.9347  
1232       20.4046    126.1458   -9999      -9999      0.411      0.297      -60.724   
1232.125   20.4044    126.5159   -9999      -9999      0.3525     0.2563     -56.8253  
1232.25    20.4041    126.1932   -9999      -9999      0.3211     0.216      -53.2336  
1232.375   20.4039    125.399    -9999      -9999      0.313      0.1794     -50.7393  
1232.5     20.404     124.4178   -9999      -9999      0.3196     0.1536     -49.4724  
1232.625   20.4049    123.4901   -9999      -9999      0.3282     0.1454     -49.3498  
1232.75    20.4068    122.5576   -9999      -9999      0.3147     0.1471     -51.5654  
1232.875   20.3972    121.5779   -9999      -9999      0.2672     0.1611     -54.3631  
1233       20.3889    120.5793   -9999      -9999      0.208      0.1884     -50.6232  
1233.125   20.3853    119.6132   -9999      -9999      0.1604     0.2264     -44.6263  
1233.25    20.3863    118.8293   -9999      -9999      0.1474     0.2701     -39.985   
1233.375   20.3879    118.4952   -9999      -9999      0.1884     0.3135     -36.1686  
1233.5     20.3896    118.8771   -9999      -9999      0.2822     0.3505     -34.1495  
1233.625   20.3912    119.4308   -9999      -9999      0.3839     0.3834     -41.5694  
1233.75    20.393     119.9282   -9999      -9999      0.4785     0.4121     -51.8855  
1233.875   20.3951    120.1503   -9999      -9999      0.5549     0.4325     -61.1467  
1234       20.3974    119.9728   -9999      -9999      0.603      0.4405     -67.1667  
1234.125   20.3997    119.5523   -9999      -9999      0.6007     0.4359     -68.8473  
1234.25    20.4021    119.1547   -9999      -9999      0.5576     0.413      -67.9969  
1234.375   20.4044    118.7903   -9999      -9999      0.5014     0.3831     -66.1311  
1234.5     20.4067    118.4449   -9999      -9999      0.4428     0.3503     -64.1573  
1234.625   20.409     118.1509   -9999      -9999      0.3886     0.3192     -62.4783  
1234.75    20.4108    118.0198   -9999      -9999      0.3429     0.2954     -61.0134  
1234.875   20.4107    118.697    -9999      -9999      0.3153     0.2813     -61.3469  
1235       20.4098    119.7157   -9999      -9999      0.3021     0.2677     -63.428   
1235.125   20.4086    120.6707   -9999      -9999      0.2933     0.2542     -65.9889  
1235.25    20.4073    121.4644   -9999      -9999      0.2852     0.2421     -68.2934  
1235.375   20.4061    122.1312   -9999      -9999      0.2771     0.2336     -69.547   
1235.5     20.4049    122.7253   -9999      -9999      0.2696     0.2342     -68.1521  
1235.625   20.4036    123.255    -9999      -9999      0.2621     0.2409     -67.1072  
