~Version
 VERS              .         2.0                           : CWLS LOG ASCII STANDARD - VERSION 2.0
 WRAP              .         NO                            : ONE LINE PER DEPTH STEP
 DLM               .         SPACE                         : DELIMITING CHARACTER(SPACE TAB OR COMMA)
~Well Information
#_______________________________________________________________________________
#
#PARAMETER_NAME    .UNIT     VALUE                         : DESCRIPTION
#_______________________________________________________________________________
STRT               .M        30                            : First reference value
STOP               .M        3440                          : Last reference value
STEP               .M        0.125                         : Step increment
NULL               .         -9999                         : Missing value
COMP               .         	                           : Company
WELL               .         trial-1                       : Well name
FLD                .         trial                         : Field
LOC                .         UNKNOWN                       : Location
CNTY               .                             		   : County
STAT               .                              		   : State
CTRY               .                                 	   : Country
SRVC               .         UNKNOWN                       : Service Company
DATE               .         UNKNOWN                       : Date
UWI                .         20570423                      : Unique Well ID
YCOORD             .                 				       : SURFACE Y
LON                .                          			   : LONGITUDE
XCOORD             .                 				       : SURFACE X
LAT                .         		                       : LATITUDE
ELEV_TYPE          .         KB                            : ELEV TYPE
ELEV               .M        7.7600                        : SURFACE ELEV
group              .         trial                       : 
ORIGINALWELLNAME   .         trial-1                     : 
~Parameter Information Block
#_______________________________________________________________________________
#
#PARAMETER_NAME    .UNIT     VALUE                         : DESCRIPTION
#_______________________________________________________________________________
SET                .         Curvas_Basicas_Editadas_OW    : 
TLFamily_CALI_Edit .         Caliper                       : 
TLFamily_DT_Edit   .         Compressional Slowness        : 
TLFamily_GR_Edit   .         Gamma Ray                     : 
TLFamily_RM_Edit   .         Mud Resistivity               : 
TLFamily_DEPTH     .         Measured Depth                : 
TLFamily_SP_Edit   .         Spontaneous Potential         : 
TLFamily_RT_Edit   .         Formation Resistivity         : 
TLFamily_NPHI_Edit .         Neutron Porosity              : 
~Curve Information
#_______________________________________________________________________________
#
#LOGNAME           .UNIT     LOG_ID                        : DESCRIPTION
#_______________________________________________________________________________
DEPTH              .M                                      : Measured Depth 
CALI_Edit          .inches                                 : v1 
DT_Edit            .us/ft                                  : v1 
GR_Edit            .API                                    : v1 
NPHI_Edit          .v/v_decimal                            : v1 
RM_Edit            .ohm.m                                  : v1 
RT_Edit            .ohm.m                                  : v1 
SP_Edit            .mV                                     : v1 
~Ascii
# ...
496.375    -9999      -9999      -9999      -9999      1.6271     -9999      -43.4202  
496.5      -9999      -9999      -9999      -9999      1.5333     -9999      -34.4769  
496.625    -9999      -9999      -9999      -9999      1.4846     -9999      -26.0536  
496.75     -9999      -9999      -9999      -9999      1.4774     -9999      -18.9554  
496.875    -9999      -9999      -9999      -9999      1.4899     -9999      -14.3844  
497        -9999      -9999      -9999      -9999      1.5025     -9999      -12.722   
497.125    -9999      -9999      -9999      -9999      1.515      -9999      -12.4204  
497.25     -9999      -9999      -9999      -9999      1.5276     -9999      -12.5376  
497.375    -9999      -9999      -9999      -9999      1.5401     -9999      -12.2812  
497.5      -9999      -9999      -9999      -9999      1.5527     -9999      -11.5552  
497.625    -9999      -9999      -9999      -9999      1.5652     -9999      -10.507   
497.75     -9999      -9999      -9999      -9999      1.5778     -9999      -9.4534   
497.875    -9999      -9999      -9999      -9999      1.5903     -9999      -8.8164   
498        -9999      -9999      -9999      -9999      1.6029     -9999      -9.8146   
498.125    -9999      -9999      -9999      -9999      1.6159     -9999      -11.8001  
498.25     -9999      -9999      -9999      -9999      1.6308     -9999      -14.3361  
498.375    -9999      -9999      -9999      -9999      1.6492     -9999      -17.3905  
498.5      -9999      -9999      -9999      -9999      1.672      -9999      -21.5823  
498.625    -9999      -9999      -9999      -9999      1.6948     -9999      -25.8416  
498.75     -9999      -9999      -9999      -9999      1.7175     -9999      -28.3379  
498.875    -9999      -9999      -9999      -9999      1.7403     -9999      -27.843   
499        -9999      -9999      -9999      -9999      1.7874     -9999      -24.5225  
499.125    -9999      -9999      -9999      -9999      1.863      -9999      -19.6951  
499.25     -9999      -9999      -9999      -9999      1.8056     -9999      -16.1296  
499.375    -9999      -9999      -9999      -9999      1.874      -9999      -13.633   
499.5      -9999      -9999      -9999      -9999      1.8465     -9999      -11.3271  
499.625    -9999      -9999      -9999      -9999      1.8599     -9999      -9.3087   
499.75     -9999      -9999      -9999      -9999      1.9091     -9999      -8.1205   
499.875    -9999      -9999      -9999      -9999      1.7493     -9999      -8.6932   
500        -9999      -9999      -9999      -9999      1.854      -9999      -13.0645  
500.125    -9999      -9999      -9999      -9999      1.8122     -9999      -18.955   
500.25     22.0756    -9999      -9999      -9999      1.7943     1.7015     -22.7716  
500.375    22.0684    -9999      -9999      -9999      1.8025     1.6795     -24.6429  
500.5      22.0631    -9999      -9999      -9999      1.7846     1.6332     -26.0517  
500.625    22.0593    -9999      -9999      -9999      1.7707     1.5512     -27.1914  
500.75     22.0658    -9999      -9999      -9999      1.7721     1.4816     -28.3166  
500.875    22.1051    -9999      -9999      -9999      1.7665     1.4229     -29.1509  
501        22.1636    174.8871   -9999      -9999      1.7488     1.375      -29.5612  
501.125    22.2267    173.7642   -9999      -9999      1.72       1.3357     -29.586   
501.25     22.2847    172.5854   -9999      -9999      1.6861     1.3014     -29.4051  
501.375    22.3288    171.0297   -9999      -9999      1.6588     1.2776     -28.8531  
501.5      22.3465    169.3258   -9999      -9999      1.6413     1.2559     -28.1607  
501.625    22.3558    167.2155   -9999      -9999      1.6297     1.2454     -27.4847  
501.75     22.3602    164.1298   -9999      -9999      1.6279     1.2632     -26.8469  
501.875    22.3579    161.17     -9999      -9999      1.6415     1.3157     -26.2544  
502        22.3442    164.2759   -9999      -9999      1.6739     1.3772     -25.7964  
502.125    22.3317    167.5509   -9999      -9999      1.7152     1.4495     -25.4318  
502.25     22.3321    169.9535   -9999      -9999      1.7597     1.5134     -25.2068  
502.375    22.334     171.567    -9999      -9999      1.8068     1.5628     -25.2787  
502.5      22.3301    172.6818   -9999      -9999      1.8551     1.5991     -25.7214  
502.625    22.3201    173.6843   -9999      -9999      1.9033     1.6293     -26.5689  
502.75     22.3137    174.9219   -9999      -9999      1.9488     1.6566     -28.2874  
502.875    22.3236    176.0667   -9999      -9999      1.9864     1.6804     -30.0577  
503        22.3328    176.6807   -9999      -9999      2.0105     1.6983     -31.4607  
503.125    22.3323    176.0797   -9999      -9999      2.0158     1.7056     -32.3203  
503.25     22.319     173.9908   -9999      -9999      1.9999     1.6986     -32.6383  
503.375    22.2972    171.0646   -9999      -9999      1.9656     1.6769     -32.6212  
503.5      22.2666    165.9493   -9999      -9999      1.9274     1.6421     -32.3415  
503.625    22.2203    159.8596   -9999      -9999      1.8912     1.6135     -32.0732  
503.75     22.1547    155.7044   -9999      -9999      1.8563     1.5921     -31.8521  
503.875    22.0779    153.6815   -9999      -9999      1.8266     1.58       -31.7394  
504        22.0057    152.264    -9999      -9999      1.8083     1.5783     -31.7994  
504.125    21.9531    151.4616   -9999      -9999      1.8075     1.5801     -32.049   
504.25     21.9516    150.8461   -9999      -9999      1.8214     1.5912     -32.58    
504.375    21.9806    149.9926   -9999      -9999      1.8512     1.6125     -33.3621  
504.5      22.0174    148.6544   -9999      -9999      1.8933     1.6415     -34.4489  
504.625    22.0473    146.9919   -9999      -9999      1.9466     1.6731     -36.0839  
504.75     22.0718    145.7257   -9999      -9999      2.0141     1.7003     -38.7014  
504.875    22.0763    145.149    -9999      -9999      2.1152     1.7036     -41.2103  
505        22.0731    145.0144   -9999      -9999      2.2356     1.7011     -44.4576  
505.125    22.0674    144.2716   -9999      -9999      2.3684     1.6879     -47.3942  
505.25     22.0623    142.1119   -9999      -9999      2.4786     1.6643     -49.6424  
505.375    22.0591    138.8243   -9999      -9999      2.5202     1.6309     -50.9661  
505.5      22.0583    138.7334   -9999      -9999      2.4491     1.5762     -49.979   
505.625    22.0579    139.9777   -9999      -9999      2.3269     1.5169     -47.6771  
505.75     22.0576    141.2149   -9999      -9999      2.2001     1.4524     -45.0184  
505.875    22.0571    142.0863   -9999      -9999      2.0783     1.3837     -42.6842  
506        22.0561    143.0305   -9999      -9999      1.9622     1.3125     -40.7781  
506.125    22.0539    145.1332   -9999      -9999      1.8466     1.2413     -38.7624  
506.25     22.0513    145.8604   -9999      -9999      1.726      1.1769     -36.7734  
506.375    22.0485    145.6487   -9999      -9999      1.5987     1.1224     -35.4473  
506.5      22.046     146.2841   -9999      -9999      1.5058     1.0704     -34.5519  
506.625    22.0443    147.4861   -9999      -9999      1.4756     1.021      -34.4398  
506.75     22.0435    148.2844   -9999      -9999      1.516      0.9798     -35.5747  
506.875    22.0427    148.2357   -9999      -9999      1.5966     0.9612     -38.1852  
507        22.0403    147.1544   -9999      -9999      1.6995     0.9545     -41.3164  
507.125    22.0377    148.6419   -9999      -9999      1.8136     0.9771     -46.4326  
507.25     22.0364    151.2145   -9999      -9999      1.9379     1.0175     -50.7215  
507.375    22.0374    153.8658   -9999      -9999      2.061      1.0638     -53.3324  
507.5      22.0403    156.4874   -9999      -9999      2.16       1.108      -55.4029  
507.625    22.044     157.9327   -9999      -9999      2.1821     1.1463     -54.8645  
