~Version
 VERS              .         2.0                           : CWLS LOG ASCII STANDARD - VERSION 2.0
 WRAP              .         NO                            : ONE LINE PER DEPTH STEP
 DLM               .         SPACE                         : DELIMITING CHARACTER(SPACE TAB OR COMMA)
~Well Information
#_______________________________________________________________________________
#
#PARAMETER_NAME    .UNIT     VALUE                         : DESCRIPTION
#_______________________________________________________________________________
STRT               .M        30                            : First reference value
STOP               .M        3440                          : Last reference value
STEP               .M        0.125                         : Step increment
NULL               .         -9999                         : Missing value
COMP               .         	                           : Company
WELL               .         trial-1                       : Well name
FLD                .         trial                         : Field
LOC                .         UNKNOWN                       : Location
CNTY               .                             		   : County
STAT               .                              		   : State
CTRY               .                                 	   : Country
SRVC               .         UNKNOWN                       : Service Company
DATE               .         UNKNOWN                       : Date
UWI                .         20570423                      : Unique Well ID
YCOORD             .                 				       : SURFACE Y
LON                .                          			   : LONGITUDE
XCOORD             .                 				       : SURFACE X
LAT                .         		                       : LATITUDE
ELEV_TYPE          .         KB                            : ELEV TYPE
ELEV               .M        7.7600                        : SURFACE ELEV
group              .         trial                       : 
ORIGINALWELLNAME   .         trial-1                     : 
~Parameter Information Block
#_______________________________________________________________________________
#
#PARAMETER_NAME    .UNIT     VALUE                         : DESCRIPTION
#_______________________________________________________________________________
SET                .         Curvas_Basicas_Editadas_OW    : 
TLFamily_CALI_Edit .         Caliper                       : 
TLFamily_DT_Edit   .         Compressional Slowness        : 
TLFamily_GR_Edit   .         Gamma Ray                     : 
TLFamily_RM_Edit   .         Mud Resistivity               : 
TLFamily_DEPTH     .         Measured Depth                : 
TLFamily_SP_Edit   .         Spontaneous Potential         : 
TLFamily_RT_Edit   .         Formation Resistivity         : 
TLFamily_NPHI_Edit .         Neutron Porosity              : 
~Curve Information
#_______________________________________________________________________________
#
#LOGNAME           .UNIT     LOG_ID                        : DESCRIPTION
#_______________________________________________________________________________
DEPTH              .M                                      : Measured Depth 
CALI_Edit          .inches                                 : v1 
DT_Edit            .us/ft                                  : v1 
GR_Edit            .API                                    : v1 
NPHI_Edit          .v/v_decimal                            : v1 
RM_Edit            .ohm.m                                  : v1 
RT_Edit            .ohm.m                                  : v1 
SP_Edit            .mV                                     : v1 
~Ascii
# ...
2509.75    17.0069    104.5218   -9999      -9999      1.1749     0.4906     -6.3351   
2509.875   17.0085    103.5555   -9999      -9999      1.1178     0.5149     -6.7227   
2510       17.0077    102.2158   -9999      -9999      1.1927     0.561      -7.5978   
2510.125   17.001     99.8836    -9999      -9999      1.325      0.617      -8.8823   
2510.25    16.9888    95.3332    -9999      -9999      1.4823     0.6766     -10.5192  
2510.375   16.973     89.1982    -9999      -9999      1.6425     0.735      -12.4896  
2510.5     16.9564    83.4626    -9999      -9999      1.7934     0.7893     -14.7784  
2510.625   16.941     81.4032    -9999      -9999      1.9317     0.84       -17.317   
2510.75    16.928     82.2125    -9999      -9999      2.0083     0.8803     -20.6111  
2510.875   16.918     85.3286    -9999      -9999      1.967      0.8974     -31.6211  
2511       16.9171    89.9932    -9999      -9999      1.8188     0.89       -44.3496  
2511.125   16.9314    95.0129    -9999      -9999      1.6098     0.8677     -54.216   
2511.25    16.9646    98.8254    -9999      -9999      1.4109     0.8517     -61.8566  
2511.375   17.0011    100.7577   -9999      -9999      1.2667     0.8665     -69.5796  
2511.5     17.0193    101.0835   -9999      -9999      1.1586     0.8942     -73.6297  
2511.625   17.0269    99.7947    -9999      -9999      1.0824     0.9185     -74.6246  
2511.75    17.0298    97.3544    -9999      -9999      1.0474     0.9319     -71.9176  
2511.875   17.0321    94.5956    -9999      -9999      1.0665     0.9343     -65.3349  
2512       17.033     92.8068    -9999      -9999      1.1475     0.9368     -57.9923  
2512.125   17.0262    92.5182    -9999      -9999      1.2643     0.9509     -52.6544  
2512.25    17.0125    92.27      -9999      -9999      1.411      0.9736     -47.8372  
2512.375   16.9948    91.6894    -9999      -9999      1.5868     0.999      -44.0064  
2512.5     16.9763    91.1205    -9999      -9999      1.7547     1.0203     -42.2406  
2512.625   16.9594    91.501     -9999      -9999      1.8401     1.0313     -44.1037  
2512.75    16.949     92.8941    -9999      -9999      1.7261     1.0296     -53.2802  
2512.875   16.9438    93.5305    -9999      -9999      1.5319     1.0228     -63.5251  
2513       16.9406    92.9965    -9999      -9999      1.3544     1.0182     -71.2074  
2513.125   16.938     91.3895    -9999      -9999      1.2242     1.0237     -76.0473  
2513.25    16.9358    89.1527    -9999      -9999      1.1408     1.045      -79.0544  
2513.375   16.9345    87.0541    -9999      -9999      1.0865     1.083      -81.3058  
2513.5     16.9353    85.4286    -9999      -9999      1.0681     1.1219     -81.6009  
2513.625   16.937     84.1103    -9999      -9999      1.0751     1.1546     -81.2765  
2513.75    16.939     83.1792    -9999      -9999      1.0931     1.1825     -80.9472  
2513.875   16.9408    82.7944    -9999      -9999      1.112      1.2068     -80.9135  
2514       16.9424    83.1557    -9999      -9999      1.1281     1.2274     -81.1686  
2514.125   16.9424    84.5085    -9999      -9999      1.1504     1.2422     -81.3653  
2514.25    16.9403    86.2706    -9999      -9999      1.1797     1.2513     -81.1732  
2514.375   16.9373    87.8249    -9999      -9999      1.2185     1.2551     -80.675   
2514.5     16.934     88.8868    -9999      -9999      1.2715     1.2543     -79.8254  
2514.625   16.931     89.3932    -9999      -9999      1.343      1.2486     -78.6012  
2514.75    16.9285    89.5412    -9999      -9999      1.436      1.2359     -77.06    
2514.875   16.9266    89.6316    -9999      -9999      1.555      1.2099     -75.0074  
2515       16.9248    89.7586    -9999      -9999      1.6997     1.1753     -72.4495  
2515.125   16.923     89.9248    -9999      -9999      1.8713     1.1357     -68.3668  
2515.25    16.921     90.125     -9999      -9999      2.0644     1.0938     -62.7093  
2515.375   16.919     90.3554    -9999      -9999      2.269      1.0515     -55.9705  
2515.5     16.9167    90.6527    -9999      -9999      2.4748     1.0101     -47.6572  
2515.625   16.9142    90.9919    -9999      -9999      2.6694     0.9739     -39.8495  
2515.75    16.9118    91.2844    -9999      -9999      2.8454     0.9446     -33.9508  
2515.875   16.9093    91.5033    -9999      -9999      2.9951     0.9189     -29.6791  
2516       16.9069    91.6547    -9999      -9999      3.113      0.8923     -26.4602  
2516.125   16.9045    91.7749    -9999      -9999      3.1966     0.8604     -23.8581  
2516.25    16.9028    91.9073    -9999      -9999      3.2582     0.8232     -21.625   
2516.375   16.9018    92.0644    -9999      -9999      3.309      0.7874     -19.7888  
2516.5     16.9013    92.2838    -9999      -9999      3.3454     0.7544     -18.4352  
2516.625   16.901     92.5869    -9999      -9999      3.3588     0.7259     -17.4865  
2516.75    16.9007    92.9679    -9999      -9999      3.3391     0.7034     -16.8317  
2516.875   16.9003    93.3519    -9999      -9999      3.2747     0.6887     -16.6676  
2517       16.9       93.6075    -9999      -9999      3.1858     0.6827     -16.6891  
2517.125   16.8997    93.678     -9999      -9999      3.1003     0.6824     -16.7232  
2517.25    16.8993    93.5634    -9999      -9999      3.0323     0.6836     -16.6967  
2517.375   16.899     93.3214    -9999      -9999      2.9893     0.6828     -16.5759  
2517.5     16.8987    93.0588    -9999      -9999      2.9712     0.6777     -16.357   
2517.625   16.8984    92.7795    -9999      -9999      2.9671     0.6666     -15.8258  
2517.75    16.898     92.1451    -9999      -9999      2.9603     0.6509     -15.1879  
2517.875   16.8977    91.116     -9999      -9999      2.9422     0.6364     -14.4954  
2518       16.8974    89.9226    -9999      -9999      2.905      0.6273     -13.7754  
2518.125   16.897     88.9078    -9999      -9999      2.8423     0.6256     -13.0428  
2518.25    16.8967    88.4151    -9999      -9999      2.749      0.6285     -12.2981  
2518.375   16.8965    88.3788    -9999      -9999      2.6319     0.6289     -11.331   
2518.5     16.8969    88.5142    -9999      -9999      2.5088     0.6258     -10.5241  
2518.625   16.8979    88.7338    -9999      -9999      2.3844     0.6223     -9.8225   
2518.75    16.8995    89.1082    -9999      -9999      2.2634     0.6213     -9.1717   
2518.875   16.9012    89.8661    -9999      -9999      2.15       0.6249     -8.5606   
2519       16.9028    91.5737    -9999      -9999      2.048      0.6333     -8.051    
2519.125   16.9046    93.394     -9999      -9999      1.9538     0.6396     -7.7011   
2519.25    16.9062    94.6001    -9999      -9999      1.8773     0.6402     -7.4834   
2519.375   16.9079    95.1431    -9999      -9999      1.8284     0.6352     -7.4418   
2519.5     16.9096    95.3595    -9999      -9999      1.8138     0.6266     -7.6193   
2519.625   16.9111    95.9498    -9999      -9999      1.8343     0.6172     -8.0192   
2519.75    16.9117    98.3638    -9999      -9999      1.8775     0.6099     -8.6842   
2519.875   16.911     101.8962   -9999      -9999      1.9276     0.6055     -9.7482   
2520       16.9096    103.2584   -9999      -9999      1.9828     0.6035     -11.3386  
2520.125   16.9079    100.729    -9999      -9999      2.043      0.603      -13.4926  
2520.25    16.9061    94.7619    -9999      -9999      2.1089     0.603      -16.1854  
2520.375   16.9044    90.9138    -9999      -9999      2.1794     0.603      -19.5339  
2520.5     16.9026    87.911     -9999      -9999      2.2324     0.6049     -28.5762  
2520.625   16.9008    83.6431    -9999      -9999      2.2193     0.6154     -37.8496  
2520.75    16.8988    78.7948    -9999      -9999      2.1191     0.6381     -45.8906  
2520.875   16.8969    74.6811    -9999      -9999      1.9425     0.6729     -53.4263  
2521       16.895     72.4693    -9999      -9999      1.7422     0.7149     -63.5213  
