~Version
 VERS              .         2.0                           : CWLS LOG ASCII STANDARD - VERSION 2.0
 WRAP              .         NO                            : ONE LINE PER DEPTH STEP
 DLM               .         SPACE                         : DELIMITING CHARACTER(SPACE TAB OR COMMA)
~Well Information
#_______________________________________________________________________________
#
#PARAMETER_NAME    .UNIT     VALUE                         : DESCRIPTION
#_______________________________________________________________________________
STRT               .M        30                            : First reference value
STOP               .M        3440                          : Last reference value
STEP               .M        0.125                         : Step increment
NULL               .         -9999                         : Missing value
COMP               .         	                           : Company
WELL               .         trial-1                       : Well name
FLD                .         trial                         : Field
LOC                .         UNKNOWN                       : Location
CNTY               .                             		   : County
STAT               .                              		   : State
CTRY               .                                 	   : Country
SRVC               .         UNKNOWN                       : Service Company
DATE               .         UNKNOWN                       : Date
UWI                .         20570423                      : Unique Well ID
YCOORD             .                 				       : SURFACE Y
LON                .                          			   : LONGITUDE
XCOORD             .                 				       : SURFACE X
LAT                .         		                       : LATITUDE
ELEV_TYPE          .         KB                            : ELEV TYPE
ELEV               .M        7.7600                        : SURFACE ELEV
group              .         trial                       : 
ORIGINALWELLNAME   .         trial-1                     : 
~Parameter Information Block
#_______________________________________________________________________________
#
#PARAMETER_NAME    .UNIT     VALUE                         : DESCRIPTION
#_______________________________________________________________________________
SET                .         Curvas_Basicas_Editadas_OW    : 
TLFamily_CALI_Edit .         Caliper                       : 
TLFamily_DT_Edit   .         Compressional Slowness        : 
TLFamily_GR_Edit   .         Gamma Ray                     : 
TLFamily_RM_Edit   .         Mud Resistivity               : 
TLFamily_DEPTH     .         Measured Depth                : 
TLFamily_SP_Edit   .         Spontaneous Potential         : 
TLFamily_RT_Edit   .         Formation Resistivity         : 
TLFamily_NPHI_Edit .         Neutron Porosity              : 
~Curve Information
#_______________________________________________________________________________
#
#LOGNAME           .UNIT     LOG_ID                        : DESCRIPTION
#_______________________________________________________________________________
DEPTH              .M                                      : Measured Depth 
CALI_Edit          .inches                                 : v1 
DT_Edit            .us/ft                                  : v1 
GR_Edit            .API                                    : v1 
NPHI_Edit          .v/v_decimal                            : v1 
RM_Edit            .ohm.m                                  : v1 
RT_Edit            .ohm.m                                  : v1 
SP_Edit            .mV                                     : v1 
~Ascii
# ...
2691.75    16.9478    85.9579    -9999      -9999      2.0208     1.3263     -53.2135  
2691.875   16.9449    84.4912    -9999      -9999      2.2399     1.1626     -40.2613  
2692       16.9405    83.4107    -9999      -9999      2.461      1.0115     -31.7081  
2692.125   16.9354    83.8168    -9999      -9999      2.6369     0.9094     -25.6867  
2692.25    16.9304    84.4855    -9999      -9999      2.7681     0.8401     -20.5278  
2692.375   16.9259    84.2958    -9999      -9999      2.8696     0.7932     -16.1101  
2692.5     16.9218    83.2003    -9999      -9999      2.9513     0.7608     -12.2895  
2692.625   16.9181    81.6315    -9999      -9999      3.017      0.7364     -9.0204   
2692.75    16.9152    80.2101    -9999      -9999      3.0549     0.7166     -6.6042   
2692.875   16.914     79.0521    -9999      -9999      3.057      0.7087     -5.2087   
2693       16.9136    78.1946    -9999      -9999      3.0618     0.7079     -4.2328   
2693.125   16.914     78.9349    -9999      -9999      3.0925     0.7075     -3.5159   
2693.25    16.9172    82.5686    -9999      -9999      3.1513     0.7028     -2.9874   
2693.375   16.9269    89.6172    -9999      -9999      3.2214     0.6917     -2.6394   
2693.5     16.9496    95.2994    -9999      -9999      3.2694     0.673      -2.4636   
2693.625   16.9717    96.6574    -9999      -9999      3.2914     0.6472     -2.3548   
2693.75    16.9858    95.97      -9999      -9999      3.2791     0.6183     -2.2972   
2693.875   16.99      94.23      -9999      -9999      3.2389     0.5894     -2.3064   
2694       16.9858    91.8077    -9999      -9999      3.1868     0.5634     -2.4057   
2694.125   16.9773    88.3345    -9999      -9999      3.1474     0.543      -2.625    
2694.25    16.9692    83.9554    -9999      -9999      3.1266     0.532      -3.0366   
2694.375   16.9617    79.67      -9999      -9999      3.1109     0.5266     -3.6587   
2694.5     16.9545    76.2378    -9999      -9999      3.0963     0.5253     -4.6984   
2694.625   16.9476    74.9192    -9999      -9999      3.0779     0.5278     -6.233    
2694.75    16.9412    76.865     -9999      -9999      3.0507     0.535      -8.258    
2694.875   16.9363    81.3103    -9999      -9999      3.0028     0.5523     -10.4059  
2695       16.9327    84.1073    -9999      -9999      2.9014     0.5862     -15.7255  
2695.125   16.9297    86.1245    -9999      -9999      2.7485     0.6349     -21.806   
2695.25    16.9269    87.0614    -9999      -9999      2.5636     0.6975     -27.997   
2695.375   16.9245    86.907     -9999      -9999      2.3644     0.7726     -34.1003  
2695.5     16.9231    86.397     -9999      -9999      2.1604     0.8574     -40.1255  
2695.625   16.9225    86.1629    -9999      -9999      1.9468     0.9601     -46.3033  
2695.75    16.922     86.4283    -9999      -9999      1.809      1.0733     -58.6962  
2695.875   16.9216    86.8138    -9999      -9999      1.7581     1.1888     -68.0894  
2696       16.9213    87.137     -9999      -9999      1.7611     1.3027     -72.9394  
2696.125   16.9211    87.4582    -9999      -9999      1.7667     1.4156     -75.752   
2696.25    16.9207    88.4084    -9999      -9999      1.7499     1.5355     -78.1022  
2696.375   16.9204    89.2054    -9999      -9999      1.7463     1.6593     -80.0864  
2696.5     16.9201    89.4261    -9999      -9999      1.7808     1.7699     -82.0538  
2696.625   16.9198    89.1556    -9999      -9999      1.8537     1.8619     -83.81    
2696.75    16.9194    88.5352    -9999      -9999      1.9524     1.9377     -85.0382  
2696.875   16.919     87.6741    -9999      -9999      2.0534     2.0067     -85.4279  
2697       16.9186    86.6391    -9999      -9999      2.1249     2.0675     -85.6105  
2697.125   16.9177    86.0967    -9999      -9999      2.1518     2.0938     -85.7804  
2697.25    16.9159    86.2038    -9999      -9999      2.127      2.0534     -85.8694  
2697.375   16.9133    86.7961    -9999      -9999      2.0597     1.9301     -85.8031  
2697.5     16.9104    87.5638    -9999      -9999      1.9734     1.7301     -85.5559  
2697.625   16.9078    88.1975    -9999      -9999      1.911      1.5007     -85.244   
2697.75    16.9071    88.3365    -9999      -9999      1.894      1.3234     -84.4082  
2697.875   16.9082    87.7655    -9999      -9999      1.9172     1.1954     -82.1111  
2698       16.9101    86.5425    -9999      -9999      1.979      1.1021     -78.5993  
2698.125   16.9124    84.9669    -9999      -9999      2.0676     1.0326     -73.886   
2698.25    16.9149    83.5508    -9999      -9999      2.1611     0.9833     -67.6588  
2698.375   16.9183    83.2365    -9999      -9999      2.2277     0.966      -59.4011  
2698.5     16.9219    83.9578    -9999      -9999      2.2086     0.9768     -52.7388  
2698.625   16.9243    84.9862    -9999      -9999      2.1096     1.0058     -48.1156  
2698.75    16.9253    86.0008    -9999      -9999      1.9729     1.0474     -46.2293  
2698.875   16.9253    86.859     -9999      -9999      1.8491     1.0962     -47.3771  
2699       16.9249    87.5616    -9999      -9999      1.7779     1.1468     -50.9821  
2699.125   16.9247    88.0375    -9999      -9999      1.7738     1.1889     -54.7591  
2699.25    16.9245    87.957     -9999      -9999      1.817      1.2095     -57.8393  
2699.375   16.9252    87.0139    -9999      -9999      1.9203     1.1957     -60.3809  
2699.5     16.9273    85.221     -9999      -9999      2.0919     1.1417     -62.5972  
2699.625   16.9314    82.8951    -9999      -9999      2.3239     1.0493     -64.6293  
2699.75    16.9368    80.7708    -9999      -9999      2.5367     0.9295     -66.0878  
2699.875   16.9365    79.8221    -9999      -9999      2.6064     0.8033     -56.2144  
2700       16.9295    80.2939    -9999      -9999      2.5324     0.6855     -44.9665  
2700.125   16.918     81.6434    -9999      -9999      2.3739     0.5869     -33.3652  
2700.25    16.9053    83.327     -9999      -9999      2.2077     0.5133     -22.5618  
2700.375   16.8935    85.2173    -9999      -9999      2.1056     0.4625     -16.951   
2700.5     16.8879    87.1601    -9999      -9999      2.0626     0.4276     -14.2184  
2700.625   16.8855    88.8182    -9999      -9999      2.002      0.4016     -12.015   
2700.75    16.8843    89.8988    -9999      -9999      1.9102     0.3831     -10.5595  
2700.875   16.8832    90.1594    -9999      -9999      1.7996     0.3704     -11.2283  
2701       16.8822    89.4751    -9999      -9999      1.6984     0.363      -15.2415  
2701.125   16.8813    88.0517    -9999      -9999      1.6366     0.3684     -20.2053  
2701.25    16.8807    87.1611    -9999      -9999      1.6223     0.3945     -25.8985  
2701.375   16.8802    86.9448    -9999      -9999      1.6349     0.4314     -30.8382  
2701.5     16.8798    87.3077    -9999      -9999      1.6631     0.473      -34.7571  
2701.625   16.8794    88.0577    -9999      -9999      1.7025     0.5156     -35.9089  
2701.75    16.879     88.9487    -9999      -9999      1.7559     0.5587     -30.7851  
2701.875   16.8787    89.7567    -9999      -9999      1.8226     0.6001     -26.619   
2702       16.8783    90.1831    -9999      -9999      1.8777     0.6377     -24.2078  
2702.125   16.8779    90.123     -9999      -9999      1.9152     0.6716     -22.7512  
2702.25    16.8774    89.6053    -9999      -9999      1.9364     0.7014     -22.1674  
2702.375   16.8769    88.7788    -9999      -9999      1.9515     0.7269     -22.5991  
2702.5     16.8765    87.9492    -9999      -9999      1.9909     0.747      -23.9322  
2702.625   16.8761    87.3326    -9999      -9999      2.083      0.762      -24.5773  
2702.75    16.8756    87.0282    -9999      -9999      2.1816     0.7715     -23.864   
2702.875   16.8746    87.1298    -9999      -9999      2.2614     0.7759     -22.3898  
2703       16.8728    87.6578    -9999      -9999      2.3105     0.7765     -20.7669  
