~Version
 VERS              .         2.0                           : CWLS LOG ASCII STANDARD - VERSION 2.0
 WRAP              .         NO                            : ONE LINE PER DEPTH STEP
 DLM               .         SPACE                         : DELIMITING CHARACTER(SPACE TAB OR COMMA)
~Well Information
#_______________________________________________________________________________
#
#PARAMETER_NAME    .UNIT     VALUE                         : DESCRIPTION
#_______________________________________________________________________________
STRT               .M        25                            : First reference value
STOP               .M        3440                          : Last reference value
STEP               .M        0.125                         : Step increment
NULL               .         -9999                         : Missing value
COMP               .                                       : Company
WELL               .         trial-1                       : Well name
FLD                .         trial                         : Field
LOC                .         UNKNOWN                       : Location
CNTY               .                                       : County
STAT               .                                       : State
CTRY               .         MEXICO                        : Country
SRVC               .         UNKNOWN                       : Service Company
DATE               .         UNKNOWN                       : Date
UWI                .         20570423                      : Unique Well ID
YCOORD             .        				               : SURFACE Y
LON                .        				               : LONGITUDE
XCOORD             .        				               : SURFACE X
LAT                .        				               : LATITUDE
ELEV_TYPE          .         KB                            : ELEV TYPE
ELEV               .M        7.7600                        : SURFACE ELEV
group              .         trial                       : 
ORIGINALWELLNAME   .         trial-1                     : 
~Parameter Information Block
#_______________________________________________________________________________
#
#PARAMETER_NAME    .UNIT     VALUE                         : DESCRIPTION
#_______________________________________________________________________________
SET                .         Evaluacion_Final_OW           : 
TLFamily_PhiDss_2013 .         Array Resistivity             : 
TLFamily_BVW_2013  .         Bulk Fluid Volume             : 
TLFamily_K_Tixier  .         Permeability                  : 
TLFamily_PhiE_2013 .         Array Resistivity             : 
TLFamily_DEPTH     .         Measured Depth                : 
TLFamily_SwSiman_2013 .         Water Saturation              : 
TLFamily_VCL       .         Clay Volume                   : 
~Curve Information
#_______________________________________________________________________________
#
#LOGNAME           .UNIT     LOG_ID                        : DESCRIPTION
#_______________________________________________________________________________
DEPT              .M                                      : Measured Depth 
BVW_2013           .v/v                                    : v1 
K_Tixier           .mD                                     : v3 
PhiDss_2013        .v/v                                    : v5 
PhiE_2013          .v/v                                    : v4 
SwSiman_2013       .v/v                                    : v2 
VCL                .v/v                                    : v1 
~Ascii
# ...
1468       0.2342     29.2083    0.2342     0.2342     1          0.0987    
1468.125   0.235      29.6339    0.235      0.235      1          0.0932    
1468.25    0.236      30.126     0.236      0.236      1          0.0874    
1468.375   0.237      30.6242    0.237      0.237      1          0.0812    
1468.5     0.2373     30.7812    0.2373     0.2373     1          0.0792    
1468.625   0.237      30.6242    0.237      0.237      1          0.0808    
1468.75    0.2362     30.25      0.2362     0.2362     1          0.0846    
1468.875   0.2353     29.7871    0.2353     0.2353     1          0.09      
1469       0.2342     29.2083    0.2342     0.2342     1          0.0968    
1469.125   0.2329     28.5785    0.2329     0.2329     1          0.1043    
1469.25    0.2308     27.5805    0.2308     0.2308     1          0.1168    
1469.375   0.2282     26.356     0.2282     0.2282     1          0.1333    
1469.5     0.2253     25.0378    0.2253     0.2253     1          0.152     
1469.625   0.2224     23.7438    0.2224     0.2224     1          0.1715    
1469.75    0.2193     22.4757    0.2193     0.2193     1          0.1921    
1469.875   0.2148     20.693     0.2148     0.2148     1          0.2235    
1470       0.2107     19.1504    0.2107     0.2107     1          0.2537    
1470.125   0.2038     16.7398    0.2038     0.2038     1          0.3081    
1470.25    0.1945     13.8943    0.1945     0.1945     1          0.3863    
1470.375   0.1852     11.4281    0.1852     0.1852     1          0.4721    
1470.5     0.1678     11.2668    0.1788     0.1788     0.9385     0.5367    
1470.625   0.1299     4.9559     0.1654     0.1432     0.9073     0.6882    
1470.75    0.0933     1.3593     0.1586     0.1034     0.903      0.7749    
1470.875   0.0728     0.7322     0.1558     0.0858     0.8486     0.813     
1471       0.0626     0.5966     0.1547     0.0789     0.7938     0.8282    
1471.125   0.0558     0.509      0.1539     0.0739     0.7548     0.839     
1471.25    0.0506     0.4521     0.1533     0.0701     0.7211     0.8472    
1471.375   0.0472     0.3886     0.1527     0.0668     0.7059     0.8544    
1471.5     0.0458     0.3246     0.1523     0.0642     0.7132     0.8601    
1471.625   0.0459     0.2674     0.152      0.0622     0.7372     0.8645    
1471.75    0.0465     0.2199     0.1517     0.0605     0.7688     0.8683    
1471.875   0.047      0.1802     0.1515     0.0587     0.8001     0.8721    
1472       0.0475     0.1726     0.1514     0.0585     0.8123     0.8725    
1472.125   0.0483     0.1704     0.1514     0.0587     0.8231     0.8721    
1472.25    0.0495     0.1706     0.1515     0.0592     0.8364     0.871     
1472.375   0.0512     0.1683     0.1515     0.0597     0.8573     0.8699    
1472.5     0.0533     0.1561     0.1515     0.0598     0.8911     0.8698    
1472.625   0.053      0.1179     0.1511     0.0569     0.9303     0.876     
1472.75    0.0509     0.0781     0.1504     0.0525     0.9708     0.8857    
1472.875   0.0484     0.0532     0.1498     0.0484     1          0.8946    
1473       0.0458     0.0428     0.1494     0.0458     1          0.9002    
1473.125   0.0448     0.0391     0.1492     0.0448     1          0.9024    
1473.25    0.044      0.0362     0.1491     0.044      1          0.9043    
1473.375   0.0425     0.0318     0.1488     0.0425     1          0.9073    
1473.5     0.0398     0.0243     0.1484     0.0398     1          0.9134    
1473.625   0.0361     0.0164     0.1479     0.0361     1          0.9215    
1473.75    0.0318     0.01       0.1473     0.0318     1          0.9307    
1473.875   0.0274     0.0055     0.1467     0.0274     1          0.9404    
1474       0.0231     0.0028     0.1461     0.0231     1          0.9496    
1474.125   0.0183     0.0012     0.1454     0.0186     0.985      0.9594    
1474.25    0.0144     0.0005     0.1448     0.0146     0.9859     0.9681    
1474.375   0.0117     0.0002     0.1444     0.0117     1          0.9746    
1474.5     0.0099     0.0001000  0.1442     0.0099     1          0.9785    
1474.625   0.0093     0.0001000  0.1441     0.0093     1          0.9797    
1474.75    0.0111     0.0001000  0.1443     0.0111     1          0.9758    
1474.875   0.0197     0.0015     0.1455     0.0197     1          0.9571    
1475       0.0402     0.0255     0.1484     0.0402     1          0.9123    
1475.125   0.0599     0.1253     0.1513     0.0599     1          0.8694    
1475.25    0.0653     0.1762     0.1521     0.0653     1          0.8578    
1475.375   0.0698     0.2306     0.1528     0.0698     1          0.8479    
1475.5     0.0809     0.4164     0.1545     0.0809     1          0.8237    
1475.625   0.1102     1.4321     0.1592     0.1102     1          0.76      
1475.75    0.1397     3.7038     0.1642     0.1397     1          0.6956    
1475.875   0.1556     5.6946     0.1671     0.1556     1          0.661     
1476       0.1537     5.4194     0.1668     0.1537     1          0.6652    
1476.125   0.1407     3.8073     0.1645     0.1407     1          0.6935    
1476.25    0.1177     1.8621     0.1605     0.1177     1          0.7437    
1476.375   0.0922     0.7007     0.1564     0.0922     1          0.7992    
1476.5     0.0685     0.2139     0.1527     0.0685     1          0.8508    
1476.625   0.0492     0.057      0.1499     0.0492     1          0.8928    
1476.75    0.0352     0.0149     0.1478     0.0352     1          0.9233    
1476.875   0.032      0.0101     0.1474     0.032      1          0.9304    
1477       0.0311     0.0091     0.1473     0.0311     1          0.9323    
1477.125   0.0314     0.0098     0.1474     0.0316     0.9933     0.9311    
1477.25    0.0336     0.0123     0.1476     0.0336     1          0.9269    
1477.375   0.0375     0.0192     0.1482     0.0375     1          0.9183    
1477.5     0.0443     0.0375     0.1492     0.0443     1          0.9035    
1477.625   0.0547     0.087      0.1507     0.0547     1          0.8808    
1477.75    0.0705     0.2399     0.1532     0.0705     1          0.8464    
1477.875   0.0892     0.6147     0.1561     0.0892     1          0.8057    
1478       0.1068     1.2639     0.1589     0.1068     1          0.7674    
1478.125   0.119      1.9492     0.161      0.119      1          0.7407    
1478.25    0.1352     3.2416     0.1638     0.1352     1          0.7056    
1478.375   0.1471     4.5418     0.1659     0.1471     1          0.6797    
1478.5     0.1552     5.6406     0.1674     0.1552     1          0.6619    
1478.625   0.1608     6.4983     0.1684     0.1608     1          0.6497    
1478.75    0.1654     7.2763     0.1693     0.1654     1          0.6396    
1478.875   0.1707     8.2393     0.1707     0.1707     1          0.6243    
1479       0.1734     8.7787     0.1734     0.1734     1          0.593     
1479.125   0.1817     10.5849    0.1817     0.1817     1          0.5054    
1479.25    0.193      13.4833    0.193      0.193      1          0.3972    
1479.375   0.2028     16.443     0.2028     0.2028     1          0.3137    
1479.5     0.2062     17.5508    0.2062     0.2062     1          0.2874    
1479.625   0.1997     15.4447    0.1997     0.1997     1          0.34      
1479.75    0.1906     12.8186    0.1906     0.1906     1          0.4205    
1479.875   0.1844     11.2201    0.1844     0.1844     1          0.4804    
1480       0.1807     10.3607    0.1807     0.1807     1          0.5166    
1480.125   0.1706     10.5327    0.1778     0.1778     0.9595     0.5478    
1480.25    0.1573     11.451     0.1755     0.1755     0.8965     0.5731    
1480.375   0.1499     11.9519    0.1739     0.1739     0.8618     0.5903    
1480.5     0.1462     12.14      0.1729     0.1729     0.8456     0.6015    
1480.625   0.146      12.0013    0.1725     0.1725     0.8463     0.6063    
1480.75    0.1498     11.4719    0.1727     0.1727     0.8675     0.6046    
1480.875   0.1595     10.3691    0.1734     0.1734     0.9201     0.5966    
