~Version
 VERS              .         2.0                           : CWLS LOG ASCII STANDARD - VERSION 2.0
 WRAP              .         NO                            : ONE LINE PER DEPTH STEP
 DLM               .         SPACE                         : DELIMITING CHARACTER(SPACE TAB OR COMMA)
~Well Information
#_______________________________________________________________________________
#
#PARAMETER_NAME    .UNIT     VALUE                         : DESCRIPTION
#_______________________________________________________________________________
STRT               .M        25                            : First reference value
STOP               .M        3440                          : Last reference value
STEP               .M        0.125                         : Step increment
NULL               .         -9999                         : Missing value
COMP               .                                       : Company
WELL               .         trial-1                       : Well name
FLD                .         trial                         : Field
LOC                .         UNKNOWN                       : Location
CNTY               .                                       : County
STAT               .                                       : State
CTRY               .         MEXICO                        : Country
SRVC               .         UNKNOWN                       : Service Company
DATE               .         UNKNOWN                       : Date
UWI                .         20570423                      : Unique Well ID
YCOORD             .        				               : SURFACE Y
LON                .        				               : LONGITUDE
XCOORD             .        				               : SURFACE X
LAT                .        				               : LATITUDE
ELEV_TYPE          .         KB                            : ELEV TYPE
ELEV               .M        7.7600                        : SURFACE ELEV
group              .         trial                       : 
ORIGINALWELLNAME   .         trial-1                     : 
~Parameter Information Block
#_______________________________________________________________________________
#
#PARAMETER_NAME    .UNIT     VALUE                         : DESCRIPTION
#_______________________________________________________________________________
SET                .         Evaluacion_Final_OW           : 
TLFamily_PhiDss_2013 .         Array Resistivity             : 
TLFamily_BVW_2013  .         Bulk Fluid Volume             : 
TLFamily_K_Tixier  .         Permeability                  : 
TLFamily_PhiE_2013 .         Array Resistivity             : 
TLFamily_DEPTH     .         Measured Depth                : 
TLFamily_SwSiman_2013 .         Water Saturation              : 
TLFamily_VCL       .         Clay Volume                   : 
~Curve Information
#_______________________________________________________________________________
#
#LOGNAME           .UNIT     LOG_ID                        : DESCRIPTION
#_______________________________________________________________________________
DEPT              .M                                      : Measured Depth 
BVW_2013           .v/v                                    : v1 
K_Tixier           .mD                                     : v3 
PhiDss_2013        .v/v                                    : v5 
PhiE_2013          .v/v                                    : v4 
SwSiman_2013       .v/v                                    : v2 
VCL                .v/v                                    : v1 
~Ascii
# ...
2040       0.0379     0.0199     0.1521     0.0379     1          0.962     
2040.125   0.0346     0.0138     0.1518     0.0346     1          0.9705    
2040.25    0.0372     0.0187     0.1522     0.0372     1          0.9635    
2040.375   0.045      0.0399     0.1533     0.045      1          0.9435    
2040.5     0.0555     0.0918     0.1547     0.0555     1          0.9167    
2040.625   0.0691     0.2214     0.1567     0.0691     1          0.8815    
2040.75    0.0808     0.4143     0.1584     0.0808     1          0.8514    
2040.875   0.0831     0.463      0.1588     0.0831     1          0.8455    
2041       0.0791     0.3811     0.1583     0.0791     1          0.8557    
2041.125   0.0731     0.2773     0.1575     0.0731     1          0.8712    
2041.25    0.0679     0.2064     0.1568     0.0679     1          0.8846    
2041.375   0.0651     0.1745     0.1565     0.0651     1          0.8918    
2041.5     0.0703     0.2379     0.1573     0.0703     1          0.8783    
2041.625   0.0718     0.2584     0.1576     0.0718     1          0.8745    
2041.75    0.0676     0.2028     0.157      0.0676     1          0.8854    
2041.875   0.0607     0.1316     0.1561     0.0607     1          0.9032    
2042       0.0565     0.0987     0.1556     0.0565     1          0.9141    
2042.125   0.0563     0.0973     0.1556     0.0563     1          0.9146    
2042.25    0.0531     0.0772     0.1552     0.0531     1          0.9227    
2042.375   0.0482     0.0525     0.1545     0.0482     1          0.9353    
2042.5     0.0435     0.0347     0.154      0.0435     1          0.9475    
2042.625   0.0405     0.0261     0.1536     0.0405     1          0.9552    
2042.75    0.0405     0.0262     0.1537     0.0405     1          0.9551    
2042.875   0.0392     0.0228     0.1536     0.0392     1          0.9586    
2043       0.0323     0.0105     0.1527     0.0323     1          0.9763    
2043.125   0.0231     0.0028     0.1515     0.0231     1          0.9999    
2043.25    0.0159     0.0006     0.1506     0.0159     1          1         
2043.375   0.012      0.0002     0.1501     0.012      1          1         
2043.5     0.014      0.0004     0.1505     0.014      1          1         
2043.625   0.0185     0.0011     0.1511     0.0185     1          1         
2043.75    0.0243     0.0034     0.1519     0.0243     1          0.9968    
2043.875   0.0299     0.0077     0.1527     0.0299     1          0.9825    
2044       0.0316     0.0097     0.1529     0.0316     1          0.9781    
2044.125   0.0218     0.0022     0.1516     0.0218     1          1         
2044.25    0.013      0.0003     0.1504     0.013      1          1         
2044.375   0.0067     0          0.1496     0.0067     1          1         
2044.5     0.005      0          0.1493     0.005      1          1         
2044.625   0.0092     0.0001000  0.1499     0.0092     1          1         
2044.75    0.019      0.0013     0.1512     0.019      1          1         
2044.875   0.0433     0.0342     0.1544     0.0433     1          0.9479    
2045       0.0639     0.162      0.1573     0.0639     1          0.8949    
2045.125   0.0819     0.4362     0.1598     0.0819     1          0.8487    
2045.25    0.0969     0.8566     0.1621     0.0969     1          0.8099    
2045.375   0.1068     1.2643     0.1636     0.1068     1          0.7844    
2045.5     0.1035     1.1136     0.163      0.1035     1          0.793     
2045.625   0.0825     0.4498     0.1599     0.0825     1          0.847     
2045.75    0.0628     0.1507     0.157      0.0628     1          0.8978    
2045.875   0.0483     0.0526     0.155      0.0483     1          0.9352    
2046       0.0394     0.0234     0.1537     0.0394     1          0.958     
2046.125   0.0349     0.0144     0.1531     0.0349     1          0.9696    
2046.25    0.0408     0.027      0.1539     0.0408     1          0.9543    
2046.375   0.0523     0.0727     0.1555     0.0523     1          0.9248    
2046.5     0.0706     0.2413     0.1581     0.0706     1          0.8777    
2046.625   0.0869     0.554      0.1604     0.0869     1          0.8357    
2046.75    0.0926     0.7147     0.1613     0.0926     1          0.821     
2046.875   0.0962     0.8331     0.1618     0.0962     1          0.8117    
2047       0.1103     1.4383     0.1639     0.1103     1          0.7754    
2047.125   0.1223     2.1733     0.1658     0.1223     1          0.7446    
2047.25    0.1282     2.6267     0.1667     0.1282     1          0.7293    
2047.375   0.1287     2.6618     0.1668     0.1287     1          0.7282    
2047.5     0.1281     2.618      0.1667     0.1281     1          0.7296    
2047.625   0.1308     2.839      0.1671     0.1308     1          0.7228    
2047.75    0.1342     3.1491     0.1676     0.1342     1          0.714     
2047.875   0.1238     2.2848     0.1659     0.1238     1          0.7406    
2048       0.1071     1.2755     0.1633     0.1071     1          0.7838    
2048.125   0.0956     0.8116     0.1615     0.0956     1          0.8133    
2048.25    0.0919     0.6938     0.161      0.0919     1          0.8227    
2048.375   0.0897     0.6293     0.1606     0.0897     1          0.8284    
2048.5     0.0872     0.5604     0.1602     0.0872     1          0.835     
2048.625   0.0851     0.5102     0.1599     0.0851     1          0.8402    
2048.75    0.0846     0.4977     0.1598     0.0846     1          0.8416    
2048.875   0.0863     0.5393     0.1601     0.0863     1          0.8372    
2049       0.0914     0.6764     0.1608     0.0914     1          0.8242    
2049.125   0.0979     0.8936     0.1618     0.0979     1          0.8073    
2049.25    0.105      1.1813     0.1628     0.105      1          0.7891    
2049.375   0.1115     1.5014     0.1638     0.1115     1          0.7724    
2049.5     0.1162     1.7725     0.1645     0.1162     1          0.7602    
2049.625   0.1179     1.8769     0.1648     0.1179     1          0.7559    
2049.75    0.117      1.8178     0.1646     0.117      1          0.7583    
2049.875   0.117      1.8169     0.1646     0.117      1          0.7583    
2050       0.12       2.0154     0.1651     0.12       1          0.7504    
2050.125   0.1212     2.0932     0.1652     0.1212     1          0.7475    
2050.25    0.1134     1.6076     0.164      0.1134     1          0.7674    
2050.375   0.1059     1.2205     0.1628     0.1059     1          0.7868    
2050.5     0.1089     1.3645     0.1633     0.1089     1          0.7791    
2050.625   0.1114     1.4965     0.1636     0.1114     1          0.7726    
2050.75    0.1121     1.5324     0.1638     0.1121     1          0.7709    
2050.875   0.113      1.5809     0.1639     0.113      1          0.7686    
2051       0.1186     1.919      0.1647     0.1186     1          0.7542    
2051.125   0.1258     2.43       0.1658     0.1258     1          0.7356    
2051.25    0.1299     2.7656     0.1665     0.1299     1          0.725     
2051.375   0.1275     2.567      0.1661     0.1275     1          0.7312    
2051.5     0.1202     2.0294     0.1649     0.1202     1          0.7499    
2051.625   0.1124     1.5506     0.1637     0.1124     1          0.77      
2051.75    0.1079     1.3169     0.163      0.1079     1          0.7816    
2051.875   0.1182     1.8925     0.1645     0.1182     1          0.7553    
2052       0.1281     2.6167     0.1661     0.1281     1          0.7296    
2052.125   0.1343     3.1609     0.1671     0.1343     1          0.7136    
2052.25    0.1358     3.3016     0.1673     0.1358     1          0.7099    
2052.375   0.1331     3.0437     0.1668     0.1331     1          0.7169    
2052.5     0.126      2.4476     0.1657     0.126      1          0.7351    
2052.625   0.1199     2.0074     0.1647     0.1199     1          0.7507    
2052.75    0.1156     1.735      0.1641     0.1156     1          0.7618    
2052.875   -9999      -9999      -9999      -9999      -9999      0.763     
