~Version
 VERS              .         2.0                           : CWLS LOG ASCII STANDARD - VERSION 2.0
 WRAP              .         NO                            : ONE LINE PER DEPTH STEP
 DLM               .         SPACE                         : DELIMITING CHARACTER(SPACE TAB OR COMMA)
~Well Information
#_______________________________________________________________________________
#
#PARAMETER_NAME    .UNIT     VALUE                         : DESCRIPTION
#_______________________________________________________________________________
STRT               .M        25                            : First reference value
STOP               .M        3440                          : Last reference value
STEP               .M        0.125                         : Step increment
NULL               .         -9999                         : Missing value
COMP               .                                       : Company
WELL               .         trial-1                       : Well name
FLD                .         trial                         : Field
LOC                .         UNKNOWN                       : Location
CNTY               .                                       : County
STAT               .                                       : State
CTRY               .         MEXICO                        : Country
SRVC               .         UNKNOWN                       : Service Company
DATE               .         UNKNOWN                       : Date
UWI                .         20570423                      : Unique Well ID
YCOORD             .        				               : SURFACE Y
LON                .        				               : LONGITUDE
XCOORD             .        				               : SURFACE X
LAT                .        				               : LATITUDE
ELEV_TYPE          .         KB                            : ELEV TYPE
ELEV               .M        7.7600                        : SURFACE ELEV
group              .         trial                       : 
ORIGINALWELLNAME   .         trial-1                     : 
~Parameter Information Block
#_______________________________________________________________________________
#
#PARAMETER_NAME    .UNIT     VALUE                         : DESCRIPTION
#_______________________________________________________________________________
SET                .         Evaluacion_Final_OW           : 
TLFamily_PhiDss_2013 .         Array Resistivity             : 
TLFamily_BVW_2013  .         Bulk Fluid Volume             : 
TLFamily_K_Tixier  .         Permeability                  : 
TLFamily_PhiE_2013 .         Array Resistivity             : 
TLFamily_DEPTH     .         Measured Depth                : 
TLFamily_SwSiman_2013 .         Water Saturation              : 
TLFamily_VCL       .         Clay Volume                   : 
~Curve Information
#_______________________________________________________________________________
#
#LOGNAME           .UNIT     LOG_ID                        : DESCRIPTION
#_______________________________________________________________________________
DEPT              .M                                      : Measured Depth 
BVW_2013           .v/v                                    : v1 
K_Tixier           .mD                                     : v3 
PhiDss_2013        .v/v                                    : v5 
PhiE_2013          .v/v                                    : v4 
SwSiman_2013       .v/v                                    : v2 
VCL                .v/v                                    : v1 
~Ascii
# ...
1793       0.2393     31.8645    0.2393     0.2393     1          0.1035    
1793.125   0.2398     32.091     0.2398     0.2398     1          0.1012    
1793.25    0.2399     32.156     0.2399     0.2399     1          0.1007    
1793.375   0.2387     31.543     0.2387     0.2387     1          0.1078    
1793.5     0.237      30.6242    0.237      0.237      1          0.1182    
1793.625   0.2355     29.8793    0.2355     0.2355     1          0.1275    
1793.75    0.2344     29.3295    0.2344     0.2344     1          0.1343    
1793.875   0.2337     28.9672    0.2337     0.2337     1          0.139     
1794       0.2321     28.1938    0.2321     0.2321     1          0.149     
1794.125   0.2295     26.9204    0.2295     0.2295     1          0.166     
1794.25    0.2244     24.6096    0.2244     0.2244     1          0.1992    
1794.375   0.2161     21.1877    0.2161     0.2161     1          0.2565    
1794.5     0.2061     17.5301    0.2061     0.2061     1          0.3318    
1794.625   0.195      14.0334    0.195      0.195      1          0.4251    
1794.75    0.1856     11.5181    0.1856     0.1856     1          0.5122    
1794.875   0.1801     10.2224    0.1801     0.1801     1          0.5671    
1795       0.179      9.9635     0.179      0.179      1          0.579     
1795.125   0.1811     10.4443    0.1811     0.1811     1          0.5574    
1795.25    0.1787     11.2288    0.1825     0.1825     0.9793     0.5437    
1795.375   0.1866     15.0876    0.1945     0.1945     0.9596     0.4307    
1795.5     0.1979     17.517     0.2033     0.2033     0.9735     0.3561    
1795.625   0.2052     17.2026    0.2052     0.2052     1          0.3417    
1795.75    0.2008     15.785     0.2008     0.2008     1          0.3774    
1795.875   0.188      12.1318    0.188      0.188      1          0.4913    
1796       0.1822     10.7126    0.1822     0.1822     1          0.5477    
1796.125   0.1807     10.3468    0.1807     0.1807     1          0.564     
1796.25    0.1839     11.1025    0.1839     0.1839     1          0.5316    
1796.375   0.1908     12.884     0.1908     0.1908     1          0.4656    
1796.5     0.1982     14.9996    0.1982     0.1982     1          0.4003    
1796.625   0.2052     17.2229    0.2052     0.2052     1          0.3429    
1796.75    0.2116     19.483     0.2116     0.2116     1          0.2939    
1796.875   0.2187     22.2283    0.2187     0.2187     1          0.2429    
1797       0.2253     25.0378    0.2253     0.2253     1          0.1979    
1797.125   0.2296     26.9773    0.2296     0.2296     1          0.1709    
1797.25    0.2296     27.0058    0.2296     0.2296     1          0.1707    
1797.375   0.2288     26.6371    0.2288     0.2288     1          0.1758    
1797.5     0.2283     26.384     0.2283     0.2283     1          0.1796    
1797.625   0.2279     26.2163    0.2279     0.2279     1          0.1821    
1797.75    0.2271     25.8281    0.2271     0.2271     1          0.1879    
1797.875   0.2247     24.7428    0.2247     0.2247     1          0.2043    
1798       0.2196     22.5752    0.2196     0.2196     1          0.239     
1798.125   0.2153     20.8569    0.2153     0.2153     1          0.2695    
1798.25    0.2126     19.8425    0.2126     0.2126     1          0.2892    
1798.375   0.2112     19.3051    0.2112     0.2112     1          0.3007    
1798.5     0.2103     18.9966    0.2103     0.2103     1          0.307     
1798.625   0.2101     18.9092    0.2101     0.2101     1          0.3091    
1798.75    0.2107     19.1283    0.2107     0.2107     1          0.305     
1798.875   0.2113     19.3716    0.2113     0.2113     1          0.2999    
1799       0.2118     19.55      0.2118     0.2118     1          0.2967    
1799.125   0.2122     19.6846    0.2122     0.2122     1          0.2942    
1799.25    0.2128     19.9332    0.2128     0.2128     1          0.2896    
1799.375   0.2141     20.4142    0.2141     0.2141     1          0.2806    
1799.5     0.2124     19.7522    0.2124     0.2124     1          0.2935    
1799.625   0.2093     18.6487    0.2093     0.2093     1          0.3169    
1799.75    0.2058     17.4273    0.2058     0.2058     1          0.3444    
1799.875   0.2024     16.2864    0.2024     0.2024     1          0.3723    
1800       0.199      15.221     0.199      0.199      1          0.4006    
1800.125   0.1961     14.3679    0.1961     0.1961     1          0.4255    
1800.25    0.1993     15.3325    0.1993     0.1993     1          0.3983    
1800.375   0.2058     17.4273    0.2058     0.2058     1          0.3455    
1800.5     0.2118     19.55      0.2118     0.2118     1          0.2994    
1800.625   0.2144     20.53      0.2144     0.2144     1          0.2805    
1800.75    0.2168     21.4743    0.2168     0.2168     1          0.2632    
1800.875   0.2195     22.5254    0.2195     0.2195     1          0.2453    
1801       0.2222     23.6921    0.2222     0.2222     1          0.2264    
1801.125   0.2198     22.6751    0.2198     0.2198     1          0.2431    
1801.25    0.2118     19.55      0.2118     0.2118     1          0.3009    
1801.375   0.2032     16.5415    0.2032     0.2032     1          0.3688    
1801.5     0.1988     15.1654    0.1988     0.1988     1          0.4054    
1801.625   0.1968     14.5642    0.1968     0.1968     1          0.4223    
1801.75    0.1958     15.2025    0.1979     0.1979     0.9897     0.4132    
1801.875   0.1996     16.6124    0.2021     0.2021     0.9878     0.3781    
1802       0.2065     18.6086    0.2083     0.2083     0.9912     0.3293    
1802.125   0.212      19.6172    0.212      0.212      1          0.3015    
1802.25    0.2141     20.3912    0.2141     0.2141     1          0.2863    
1802.375   0.2161     21.1877    0.2161     0.2161     1          0.2717    
1802.5     0.2192     22.4013    0.2192     0.2192     1          0.2505    
1802.625   0.2223     23.7179    0.2223     0.2223     1          0.229     
1802.75    0.2235     24.2131    0.2235     0.2235     1          0.2216    
1802.875   0.2238     24.3447    0.2238     0.2238     1          0.2198    
1803       0.224      24.4504    0.224      0.224      1          0.2183    
1803.125   0.2246     24.7161    0.2246     0.2246     1          0.2145    
1803.25    0.2256     25.1728    0.2256     0.2256     1          0.2082    
1803.375   0.227      25.773     0.227      0.227      1          0.1994    
1803.5     0.2288     26.6371    0.2288     0.2288     1          0.1876    
1803.625   0.2302     27.2633    0.2302     0.2302     1          0.1794    
1803.75    0.2311     27.6966    0.2311     0.2311     1          0.1739    
1803.875   0.2318     28.0175    0.2318     0.2318     1          0.1699    
1804       0.2324     28.3118    0.2324     0.2324     1          0.1667    
1804.125   0.2329     28.5785    0.2329     0.2329     1          0.1635    
1804.25    0.2331     28.6679    0.2331     0.2331     1          0.1624    
1804.375   0.233      28.6083    0.233      0.233      1          0.1634    
1804.5     0.2312     27.7547    0.2312     0.2312     1          0.1745    
1804.625   0.2276     26.0772    0.2276     0.2276     1          0.1977    
1804.75    0.2215     23.3578    0.2215     0.2215     1          0.2391    
1804.875   0.2115     19.4161    0.2115     0.2115     1          0.3107    
1805       0.2027     16.3842    0.2027     0.2027     1          0.3796    
1805.125   0.1967     14.5463    0.1967     0.1967     1          0.4298    
1805.25    0.1938     13.6876    0.1938     0.1938     1          0.4562    
1805.375   0.1933     13.5512    0.1933     0.1933     1          0.4608    
1805.5     0.1944     13.8597    0.1944     0.1944     1          0.451     
1805.625   0.1961     14.3501    0.1961     0.1961     1          0.4362    
1805.75    0.1964     14.4391    0.1964     0.1964     1          0.4339    
1805.875   0.1956     14.2087    0.1956     0.1956     1          0.4412    
