~Version
 VERS              .         2.0                           : CWLS LOG ASCII STANDARD - VERSION 2.0
 WRAP              .         NO                            : ONE LINE PER DEPTH STEP
 DLM               .         SPACE                         : DELIMITING CHARACTER(SPACE TAB OR COMMA)
~Well Information
#_______________________________________________________________________________
#
#PARAMETER_NAME    .UNIT     VALUE                         : DESCRIPTION
#_______________________________________________________________________________
STRT               .M        25                            : First reference value
STOP               .M        3440                          : Last reference value
STEP               .M        0.125                         : Step increment
NULL               .         -9999                         : Missing value
COMP               .                                       : Company
WELL               .         trial-1                       : Well name
FLD                .         trial                         : Field
LOC                .         UNKNOWN                       : Location
CNTY               .                                       : County
STAT               .                                       : State
CTRY               .         MEXICO                        : Country
SRVC               .         UNKNOWN                       : Service Company
DATE               .         UNKNOWN                       : Date
UWI                .         20570423                      : Unique Well ID
YCOORD             .        				               : SURFACE Y
LON                .        				               : LONGITUDE
XCOORD             .        				               : SURFACE X
LAT                .        				               : LATITUDE
ELEV_TYPE          .         KB                            : ELEV TYPE
ELEV               .M        7.7600                        : SURFACE ELEV
group              .         trial                       : 
ORIGINALWELLNAME   .         trial-1                     : 
~Parameter Information Block
#_______________________________________________________________________________
#
#PARAMETER_NAME    .UNIT     VALUE                         : DESCRIPTION
#_______________________________________________________________________________
SET                .         Evaluacion_Final_OW           : 
TLFamily_PhiDss_2013 .         Array Resistivity             : 
TLFamily_BVW_2013  .         Bulk Fluid Volume             : 
TLFamily_K_Tixier  .         Permeability                  : 
TLFamily_PhiE_2013 .         Array Resistivity             : 
TLFamily_DEPTH     .         Measured Depth                : 
TLFamily_SwSiman_2013 .         Water Saturation              : 
TLFamily_VCL       .         Clay Volume                   : 
~Curve Information
#_______________________________________________________________________________
#
#LOGNAME           .UNIT     LOG_ID                        : DESCRIPTION
#_______________________________________________________________________________
DEPT              .M                                      : Measured Depth 
BVW_2013           .v/v                                    : v1 
K_Tixier           .mD                                     : v3 
PhiDss_2013        .v/v                                    : v5 
PhiE_2013          .v/v                                    : v4 
SwSiman_2013       .v/v                                    : v2 
VCL                .v/v                                    : v1 
~Ascii
# ...
1130       0.2028     16.443     0.2028     0.2028     1          0.4299    
1130.125   0.2029     16.4627    0.2029     0.2029     1          0.4297    
1130.25    0.2036     16.6801    0.2036     0.2036     1          0.4248    
1130.375   0.2044     16.9599    0.2044     0.2044     1          0.4187    
1130.5     0.2055     17.3249    0.2055     0.2055     1          0.4107    
1130.625   0.2059     17.4478    0.2059     0.2059     1          0.4083    
1130.75    0.2063     17.592     0.2063     0.2063     1          0.4052    
1130.875   0.2073     17.9251    0.2073     0.2073     1          0.3983    
1131       0.209      18.5409    0.209      0.209      1          0.386     
1131.125   0.2115     19.4384    0.2115     0.2115     1          0.3689    
1131.25    0.2141     20.3912    0.2141     0.2141     1          0.3518    
1131.375   0.2158     21.0691    0.2158     0.2158     1          0.3405    
1131.5     0.2161     21.164     0.2161     0.2161     1          0.3388    
1131.625   0.215      20.7631    0.215      0.215      1          0.3456    
1131.75    0.2133     20.1154    0.2133     0.2133     1          0.3571    
1131.875   0.2116     19.483     0.2116     0.2116     1          0.3682    
1132       0.2128     19.9105    0.2128     0.2128     1          0.3607    
1132.125   0.2144     20.5069    0.2144     0.2144     1          0.3502    
1132.25    0.2156     20.9982    0.2156     0.2156     1          0.3421    
1132.375   0.2164     21.2829    0.2164     0.2164     1          0.3373    
1132.5     0.2168     21.4743    0.2168     0.2168     1          0.3343    
1132.625   0.217      21.5465    0.217      0.217      1          0.333     
1132.75    0.2172     21.6188    0.2172     0.2172     1          0.3318    
1132.875   0.2177     21.8124    0.2177     0.2177     1          0.3286    
1133       0.2191     22.3765    0.2191     0.2191     1          0.3198    
1133.125   0.2221     23.6404    0.2221     0.2221     1          0.3013    
1133.25    0.2273     25.9386    0.2273     0.2273     1          0.2699    
1133.375   0.2297     27.0343    0.2297     0.2297     1          0.2563    
1133.5     0.2304     27.3495    0.2304     0.2304     1          0.2526    
1133.625   0.2301     27.2346    0.2301     0.2301     1          0.2538    
1133.75    0.2296     26.9773    0.2296     0.2296     1          0.2571    
1133.875   0.2289     26.6653    0.2289     0.2289     1          0.2609    
1134       0.2285     26.4962    0.2285     0.2285     1          0.263     
1134.125   0.2283     26.384     0.2283     0.2283     1          0.2644    
1134.25    0.2286     26.5244    0.2286     0.2286     1          0.2626    
1134.375   0.2294     26.8919    0.2294     0.2294     1          0.2583    
1134.5     0.2301     27.2059    0.2301     0.2301     1          0.2545    
1134.625   0.2298     27.0914    0.2298     0.2298     1          0.2558    
1134.75    0.2272     25.8558    0.2272     0.2272     1          0.2714    
1134.875   0.2249     24.8498    0.2249     0.2249     1          0.2848    
1135       0.223      24.0298    0.223      0.223      1          0.2961    
1135.125   0.2216     23.4346    0.2216     0.2216     1          0.3047    
1135.25    0.2209     23.1286    0.2209     0.2209     1          0.3094    
1135.375   0.2213     23.2812    0.2213     0.2213     1          0.3069    
1135.5     0.2224     23.7697    0.2224     0.2224     1          0.2998    
1135.625   0.2241     24.5034    0.2241     0.2241     1          0.2898    
1135.75    0.2258     25.254     0.2258     0.2258     1          0.2795    
1135.875   0.2272     25.8558    0.2272     0.2272     1          0.2717    
1136       0.2274     25.9663    0.2274     0.2274     1          0.2703    
1136.125   0.2245     24.6894    0.2245     0.2245     1          0.2872    
1136.25    0.2211     23.2048    0.2211     0.2211     1          0.3082    
1136.375   0.2173     21.6429    0.2173     0.2173     1          0.3323    
1136.5     0.2139     20.3219    0.2139     0.2139     1          0.3544    
1136.625   0.2115     19.4384    0.2115     0.2115     1          0.3706    
1136.75    0.2099     18.8438    0.2099     0.2099     1          0.3815    
1136.875   0.2095     18.6919    0.2095     0.2095     1          0.3846    
1137       0.2093     18.6487    0.2093     0.2093     1          0.3854    
1137.125   0.2092     18.584     0.2092     0.2092     1          0.3869    
1137.25    0.2085     18.3695    0.2085     0.2085     1          0.3912    
1137.375   0.2073     17.9251    0.2073     0.2073     1          0.4002    
1137.5     0.2048     17.1012    0.2048     0.2048     1          0.4176    
1137.625   0.2013     15.938     0.2013     0.2013     1          0.4435    
1137.75    0.1967     14.5284    0.1967     0.1967     1          0.479     
1137.875   0.179      9.9635     0.179      0.179      1          0.6315    
1138       0.0825     0.4504     0.1567     0.0825     1          0.8725    
1138.125   0.0361     0.0165     0.1497     0.0361     1          0.9624    
1138.25    0.0157     0.0006     0.1468     0.0157     1          1         
1138.375   0.0063     0          0.1456     0.0064     1          1         
1138.5     0.0023     0          0.145      0.0025     1          1         
1138.625   0.0009     0          0.1448     0.0011     1          1         
1138.75    0.0007     0          0.1448     0.0008     1          1         
1138.875   0.0013     0          0.145      0.0017     1          1         
1139       0.0037     0          0.1453     0.0049     1          1         
1139.125   0.007      0.0002     0.1459     0.0096     1          1         
1139.25    0.0117     0.001      0.1468     0.0156     1          1         
1139.375   0.0176     0.0037     0.1476     0.0221     1          0.9894    
1139.5     0.0231     0.0074     0.1483     0.0272     1          0.9796    
1139.625   0.0234     0.0049     0.1481     0.0255     1          0.9828    
1139.75    0.0225     0.0026     0.1476     0.0226     1          0.9885    
1139.875   0.0199     0.0015     0.1472     0.0199     1          0.9938    
1140       0.0178     0.001      0.1469     0.0178     1          0.9978    
1140.125   0.0166     0.0007     0.1467     0.0166     1          1         
1140.25    0.0164     0.0007     0.1467     0.0164     1          1         
1140.375   0.0176     0.0009     0.1468     0.0176     1          0.9982    
1140.5     0.0204     0.0017     0.1472     0.0204     1          0.9928    
1140.625   0.0262     0.0046     0.1479     0.0262     1          0.9815    
1140.75    0.0375     0.0193     0.1495     0.0375     1          0.9596    
1140.875   0.0579     0.1093     0.1525     0.0579     1          0.9201    
1141       0.0985     0.9148     0.1587     0.0985     1          0.8416    
1141.125   0.1813     10.4864    0.1813     0.1813     1          0.6037    
1141.25    0.1974     14.7445    0.1974     0.1974     1          0.467     
1141.375   0.2091     18.5624    0.2091     0.2091     1          0.3808    
1141.5     0.2256     25.1728    0.2256     0.2256     1          0.2741    
1141.625   0.234      29.1177    0.234      0.234      1          0.2258    
1141.75    0.2395     31.9614    0.2395     0.2395     1          0.1957    
1141.875   0.2433     34.0487    0.2433     0.2433     1          0.1757    
1142       0.2452     35.0778    0.2452     0.2452     1          0.166     
1142.125   0.2452     35.1125    0.2452     0.2452     1          0.1653    
1142.25    0.2441     34.4918    0.2441     0.2441     1          0.1706    
1142.375   0.2422     33.4087    0.2422     0.2422     1          0.1802    
1142.5     0.2404     32.4167    0.2404     0.2404     1          0.1894    
1142.625   0.2387     31.5109    0.2387     0.2387     1          0.198     
1142.75    0.2372     30.7184    0.2372     0.2372     1          0.2058    
1142.875   0.2358     30.0025    0.2358     0.2358     1          0.2131    
