~Version
 VERS              .         2.0                           : CWLS LOG ASCII STANDARD - VERSION 2.0
 WRAP              .         NO                            : ONE LINE PER DEPTH STEP
 DLM               .         SPACE                         : DELIMITING CHARACTER(SPACE TAB OR COMMA)
~Well Information
#_______________________________________________________________________________
#
#PARAMETER_NAME    .UNIT     VALUE                         : DESCRIPTION
#_______________________________________________________________________________
STRT               .M        25                            : First reference value
STOP               .M        3440                          : Last reference value
STEP               .M        0.125                         : Step increment
NULL               .         -9999                         : Missing value
COMP               .                                       : Company
WELL               .         trial-1                       : Well name
FLD                .         trial                         : Field
LOC                .         UNKNOWN                       : Location
CNTY               .                                       : County
STAT               .                                       : State
CTRY               .         MEXICO                        : Country
SRVC               .         UNKNOWN                       : Service Company
DATE               .         UNKNOWN                       : Date
UWI                .         20570423                      : Unique Well ID
YCOORD             .        				               : SURFACE Y
LON                .        				               : LONGITUDE
XCOORD             .        				               : SURFACE X
LAT                .        				               : LATITUDE
ELEV_TYPE          .         KB                            : ELEV TYPE
ELEV               .M        7.7600                        : SURFACE ELEV
group              .         trial                       : 
ORIGINALWELLNAME   .         trial-1                     : 
~Parameter Information Block
#_______________________________________________________________________________
#
#PARAMETER_NAME    .UNIT     VALUE                         : DESCRIPTION
#_______________________________________________________________________________
SET                .         Evaluacion_Final_OW           : 
TLFamily_PhiDss_2013 .         Array Resistivity             : 
TLFamily_BVW_2013  .         Bulk Fluid Volume             : 
TLFamily_K_Tixier  .         Permeability                  : 
TLFamily_PhiE_2013 .         Array Resistivity             : 
TLFamily_DEPTH     .         Measured Depth                : 
TLFamily_SwSiman_2013 .         Water Saturation              : 
TLFamily_VCL       .         Clay Volume                   : 
~Curve Information
#_______________________________________________________________________________
#
#LOGNAME           .UNIT     LOG_ID                        : DESCRIPTION
#_______________________________________________________________________________
DEPT              .M                                      : Measured Depth 
BVW_2013           .v/v                                    : v1 
K_Tixier           .mD                                     : v3 
PhiDss_2013        .v/v                                    : v5 
PhiE_2013          .v/v                                    : v4 
SwSiman_2013       .v/v                                    : v2 
VCL                .v/v                                    : v1 
~Ascii
# ...
1546       0.1244     2.3244     0.1673     0.1244     1          0.7291    
1546.125   0.1806     10.3329    0.1806     0.1806     1          0.5817    
1546.25    0.1904     12.7535    0.1904     0.1904     1          0.4876    
1546.375   0.1982     14.9996    0.1982     0.1982     1          0.4181    
1546.5     0.2031     16.5218    0.2031     0.2031     1          0.3779    
1546.625   0.2056     17.3453    0.2056     0.2056     1          0.3586    
1546.75    0.2062     17.5508    0.2062     0.2062     1          0.3542    
1546.875   0.2049     17.4527    0.2056     0.2056     1          0.3594    
1547       0.2024     17.5512    0.2049     0.2049     1          0.3655    
1547.125   0.2052     18.7468    0.2081     0.2081     1          0.3405    
1547.25    0.2127     19.8652    0.2127     0.2127     1          0.3067    
1547.375   0.2176     21.7881    0.2176     0.2176     1          0.2714    
1547.5     0.2223     23.7179    0.2223     0.2223     1          0.2395    
1547.625   0.2261     25.3898    0.2261     0.2261     1          0.2147    
1547.75    0.2284     26.4401    0.2284     0.2284     1          0.2002    
1547.875   0.2272     25.8558    0.2272     0.2272     1          0.209     
1548       0.2227     23.8994    0.2227     0.2227     1          0.2386    
1548.125   0.2166     21.3785    0.2166     0.2166     1          0.2816    
1548.25    0.2107     19.1283    0.2107     0.2107     1          0.3255    
1548.375   0.2079     18.1358    0.2079     0.2079     1          0.3473    
1548.5     0.208      18.1781    0.208      0.208      1          0.3469    
1548.625   0.2102     18.9747    0.2102     0.2102     1          0.3305    
1548.75    0.2135     20.1612    0.2135     0.2135     1          0.3069    
1548.875   0.2165     21.3545    0.2165     0.2165     1          0.2849    
1549       0.2185     22.1299    0.2185     0.2185     1          0.2716    
1549.125   0.2195     22.5254    0.2195     0.2195     1          0.2653    
1549.25    0.2198     22.6501    0.2198     0.2198     1          0.2639    
1549.375   0.2195     22.5503    0.2195     0.2195     1          0.2659    
1549.5     0.219      22.327     0.219      0.219      1          0.2701    
1549.625   0.2184     22.1054    0.2184     0.2184     1          0.2744    
1549.75    0.2182     22.0318    0.2182     0.2182     1          0.2762    
1549.875   0.2178     21.8367    0.2178     0.2178     1          0.2804    
1550       0.2175     21.7396    0.2175     0.2175     1          0.2825    
1550.125   0.2175     21.7396    0.2175     0.2175     1          0.2828    
1550.25    0.2158     21.0455    0.2158     0.2158     1          0.2958    
1550.375   0.2097     18.7786    0.2097     0.2097     1          0.3413    
1550.5     0.2033     16.581     0.2033     0.2033     1          0.3924    
1550.625   0.1967     14.5463    0.1967     0.1967     1          0.4475    
1550.75    0.1899     12.6402    0.1899     0.1899     1          0.5086    
1550.875   0.1817     10.5849    0.1817     0.1817     1          0.5896    
1551       0.1485     4.7172     0.1735     0.1485     1          0.6766    
1551.125   0.1387     3.5892     0.1716     0.1387     1          0.698     
1551.25    0.1755     9.2062     0.1791     0.1755     1          0.6178    
1551.375   0.1874     11.9761    0.1874     0.1874     1          0.5351    
1551.5     0.1942     13.8079    0.1942     0.1942     1          0.473     
1551.625   0.1978     14.8716    0.1978     0.1978     1          0.4418    
1551.75    0.1968     14.5822    0.1968     0.1968     1          0.451     
1551.875   0.1848     11.3237    0.1848     0.1848     1          0.5626    
1552       0.1711     8.3153     0.1784     0.1711     1          0.6274    
1552.125   0.1632     6.8969     0.1768     0.1632     1          0.6444    
1552.25    0.1695     8.0256     0.1782     0.1695     1          0.6307    
1552.375   0.1809     10.4025    0.1809     0.1809     1          0.6032    
1552.5     0.1841     11.1612    0.1841     0.1841     1          0.5713    
1552.625   0.1855     11.488     0.1855     0.1855     1          0.5588    
1552.75    0.1803     10.2545    0.1807     0.1803     1          0.6073    
1552.875   0.1484     4.7093     0.1742     0.1484     1          0.6768    
1553       0.1161     1.7616     0.1681     0.1161     1          0.7472    
1553.125   0.0863     0.5391     0.1628     0.0863     1          0.812     
1553.25    0.059      0.118      0.1582     0.059      1          0.8714    
1553.375   0.0469     0.0469     0.1564     0.0469     1          0.8979    
1553.5     0.041      0.0274     0.1555     0.041      1          0.9107    
1553.625   0.0381     0.0205     0.155      0.0381     1          0.9169    
1553.75    0.0362     0.0167     0.1548     0.0362     1          0.9212    
1553.875   0.034      0.0129     0.1545     0.034      1          0.926     
1554       0.0313     0.0093     0.1541     0.0313     1          0.9318    
1554.125   0.0274     0.0064     0.1536     0.0281     1          0.9387    
1554.25    0.0239     0.0043     0.1532     0.0251     1          0.9453    
1554.375   0.0209     0.0028     0.1528     0.0224     1          0.9512    
1554.5     0.0184     0.0018     0.1525     0.02       1          0.9565    
1554.625   0.0162     0.001      0.1521     0.0174     1          0.962     
1554.75    0.013      0.0004     0.1516     0.0141     1          0.9694    
1554.875   0.0097     0.0002     0.151      0.0107     1          0.9768    
1555       0.0066     0          0.1505     0.0075     1          0.9837    
1555.125   0.0053     0          0.1503     0.0061     1          0.9867    
1555.25    0.0079     0.0001000  0.1507     0.0092     1          0.98      
1555.375   0.0144     0.001      0.1518     0.0167     1          0.9637    
1555.5     0.0194     0.0033     0.1527     0.0224     1          0.9511    
1555.625   0.0206     0.0041     0.1528     0.0238     1          0.9482    
1555.75    0.0196     0.0034     0.1526     0.0226     1          0.9508    
1555.875   0.0185     0.0027     0.1524     0.0214     1          0.9535    
1556       0.0178     0.0022     0.1522     0.0204     1          0.9556    
1556.125   0.0195     0.003      0.1525     0.0221     1          0.9518    
1556.25    0.0251     0.0073     0.1533     0.028      1          0.9391    
1556.375   0.0317     0.0156     0.1543     0.0343     1          0.9254    
1556.5     0.0366     0.0223     0.1548     0.0381     1          0.917     
1556.625   0.0384     0.021      0.1548     0.0384     1          0.9164    
1556.75    0.0396     0.0238     0.155      0.0396     1          0.9138    
1556.875   0.0447     0.0387     0.1558     0.0447     1          0.9027    
1557       0.0566     0.0994     0.1576     0.0566     1          0.8768    
1557.125   0.0919     0.6932     0.1636     0.0919     1          0.7998    
1557.25    0.1523     5.232      0.1748     0.1523     1          0.6681    
1557.375   0.1867     11.8066    0.1867     0.1867     1          0.545     
1557.5     0.2013     15.9572    0.2013     0.2013     1          0.4148    
1557.625   0.2169     21.4984    0.2169     0.2169     1          0.2947    
1557.75    0.2288     26.6089    0.2288     0.2288     1          0.2143    
1557.875   0.2357     29.9716    0.2357     0.2357     1          0.1712    
1558       0.2399     32.1885    0.2399     0.2399     1          0.1456    
1558.125   0.242      33.3086    0.242      0.242      1          0.1331    
1558.25    0.2426     33.6435    0.2426     0.2426     1          0.1293    
1558.375   0.2418     33.1753    0.2418     0.2418     1          0.1337    
1558.5     0.2366     32.8085    0.2396     0.2396     0.9875     0.1459    
1558.625   0.2215     33.8918    0.2356     0.2356     0.9399     0.1691    
1558.75    0.2069     32.7428    0.229      0.229      0.9034     0.2096    
1558.875   0.1948     30.1815    0.2215     0.2215     0.8797     0.2595    
