~Version
 VERS              .         2.0                           : CWLS LOG ASCII STANDARD - VERSION 2.0
 WRAP              .         NO                            : ONE LINE PER DEPTH STEP
 DLM               .         SPACE                         : DELIMITING CHARACTER(SPACE TAB OR COMMA)
~Well Information
#_______________________________________________________________________________
#
#PARAMETER_NAME    .UNIT     VALUE                         : DESCRIPTION
#_______________________________________________________________________________
STRT               .M        25                            : First reference value
STOP               .M        3440                          : Last reference value
STEP               .M        0.125                         : Step increment
NULL               .         -9999                         : Missing value
COMP               .                                       : Company
WELL               .         trial-1                       : Well name
FLD                .         trial                         : Field
LOC                .         UNKNOWN                       : Location
CNTY               .                                       : County
STAT               .                                       : State
CTRY               .         MEXICO                        : Country
SRVC               .         UNKNOWN                       : Service Company
DATE               .         UNKNOWN                       : Date
UWI                .         20570423                      : Unique Well ID
YCOORD             .        				               : SURFACE Y
LON                .        				               : LONGITUDE
XCOORD             .        				               : SURFACE X
LAT                .        				               : LATITUDE
ELEV_TYPE          .         KB                            : ELEV TYPE
ELEV               .M        7.7600                        : SURFACE ELEV
group              .         trial                       : 
ORIGINALWELLNAME   .         trial-1                     : 
~Parameter Information Block
#_______________________________________________________________________________
#
#PARAMETER_NAME    .UNIT     VALUE                         : DESCRIPTION
#_______________________________________________________________________________
SET                .         Evaluacion_Final_OW           : 
TLFamily_PhiDss_2013 .         Array Resistivity             : 
TLFamily_BVW_2013  .         Bulk Fluid Volume             : 
TLFamily_K_Tixier  .         Permeability                  : 
TLFamily_PhiE_2013 .         Array Resistivity             : 
TLFamily_DEPTH     .         Measured Depth                : 
TLFamily_SwSiman_2013 .         Water Saturation              : 
TLFamily_VCL       .         Clay Volume                   : 
~Curve Information
#_______________________________________________________________________________
#
#LOGNAME           .UNIT     LOG_ID                        : DESCRIPTION
#_______________________________________________________________________________
DEPT              .M                                      : Measured Depth 
BVW_2013           .v/v                                    : v1 
K_Tixier           .mD                                     : v3 
PhiDss_2013        .v/v                                    : v5 
PhiE_2013          .v/v                                    : v4 
SwSiman_2013       .v/v                                    : v2 
VCL                .v/v                                    : v1 
~Ascii
# ...
805        -9999      -9999      -9999      -9999      -9999      0.9225    
805.125    -9999      0.001      -9999      -9999      -9999      0.9061    
805.25     0.0552     0.1173     0.1513     0.0577     0.9565     0.8809    
805.375    0.0716     0.2721     0.1535     0.0723     0.989      0.8506    
805.5      0.0885     0.5962     0.1561     0.0885     1          0.8172    
805.625    0.1043     1.1574     0.1588     0.1044     0.9989     0.7843    
805.75     0.1163     1.9412     0.1611     0.118      0.9852     0.7563    
805.875    0.1239     2.7154     0.1628     0.1275     0.9718     0.7367    
806        0.1249     2.8145     0.163      0.1286     0.9716     0.7344    
806.125    0.1181     2.0014     0.1613     0.1192     0.9906     0.7537    
806.25     0.1055     1.2048     0.1589     0.1055     1          0.782     
806.375    0.093      0.7445     0.1568     0.0934     1          0.8071    
806.5      0.0826     0.51       0.1553     0.0843     1          0.8259    
806.625    0.0723     0.328      0.1538     0.0749     1          0.8453    
806.75     0.0641     0.2214     0.1526     0.0674     1          0.8608    
806.875    0.0573     0.1495     0.1516     0.0608     1          0.8744    
807        0.0511     0.0991     0.1506     0.0547     1          0.8871    
807.125    0.0452     0.0655     0.1498     0.049      1          0.8989    
807.25     0.0398     0.0465     0.149      0.0443     1          0.9085    
807.375    0.036      0.0395     0.1487     0.0417     1          0.9138    
807.5      0.0334     0.0347     0.1484     0.0398     1          0.9178    
807.625    0.0322     0.0345     0.1482     0.0393     1          0.9188    
807.75     0.0323     0.0388     0.1484     0.0401     1          0.9172    
807.875    0.0322     0.0413     0.1484     0.0405     1          0.9164    
808        0.0292     0.0294     0.1479     0.0371     1          0.9235    
808.125    0.0248     0.0159     0.1471     0.0316     1          0.9347    
808.25     0.0203     0.0075     0.1463     0.0261     1          0.946     
808.375    0.0172     0.0041     0.1457     0.0223     1          0.9539    
808.5      0.0159     0.0033     0.1455     0.021      1          0.9566    
808.625    0.0152     0.0032     0.1455     0.0206     1          0.9575    
808.75     0.0158     0.0043     0.1456     0.0219     1          0.9548    
808.875    0.0165     0.006      0.1458     0.0235     1          0.9515    
809        0.0174     0.0078     0.1461     0.025      1          0.9485    
809.125    0.0182     0.0096     0.1462     0.0263     1          0.9458    
809.25     0.019      0.0115     0.1464     0.0274     1          0.9434    
809.375    0.0193     0.0117     0.1464     0.0276     1          0.9429    
809.5      0.019      0.0104     0.1463     0.027      1          0.9442    
809.625    0.0185     0.0088     0.1461     0.0261     1          0.9462    
809.75     0.0179     0.0072     0.146      0.0249     1          0.9485    
809.875    0.0173     0.0057     0.1458     0.0237     1          0.9511    
810        0.0169     0.0042     0.1456     0.0223     1          0.954     
810.125    0.0168     0.0029     0.1454     0.0209     1          0.9568    
810.25     0.0164     0.002      0.1452     0.0195     1          0.9596    
810.375    0.0154     0.0015     0.145      0.0182     1          0.9625    
810.5      0.0143     0.0013     0.1448     0.0173     1          0.9643    
810.625    0.0143     0.0014     0.1449     0.0176     1          0.9637    
810.75     0.0148     0.0017     0.145      0.0184     1          0.9621    
810.875    0.0163     0.0025     0.1453     0.0202     1          0.9583    
811        0.0189     0.004      0.1457     0.0229     1          0.9526    
811.125    0.0229     0.0064     0.1462     0.0265     1          0.9452    
811.25     0.029      0.0103     0.1468     0.031      1          0.9359    
811.375    0.0367     0.0175     0.1477     0.0367     1          0.9243    
811.5      0.0417     0.0292     0.1484     0.0417     1          0.914     
811.625    0.0513     0.0674     0.1499     0.0513     1          0.894     
811.75     0.0629     0.1639     0.1518     0.0637     0.9871     0.8685    
811.875    0.0759     0.3857     0.1541     0.0782     0.9707     0.8385    
812        0.0917     0.8868     0.157      0.0957     0.958      0.8024    
812.125    0.1105     2.078      0.1607     0.1174     0.9418     0.7576    
812.25     0.1288     4.6607     0.1649     0.1413     0.9115     0.7082    
812.375    0.1452     11.08      0.1704     0.1699     0.8547     0.6491    
812.5      0.1497     12.7265    0.1756     0.1756     0.8522     0.5953    
812.625    0.1516     14.0931    0.1794     0.1794     0.8448     0.5584    
812.75     0.1516     15.1233    0.1815     0.1815     0.8349     0.5384    
812.875    0.1501     15.3878    0.1815     0.1815     0.8272     0.5386    
813        0.145      14.5736    0.1778     0.1778     0.8157     0.5736    
813.125    0.1358     13.1339    0.1709     0.1709     0.7943     0.6425    
813.25     0.1154     5.1055     0.1643     0.1383     0.8344     0.7143    
813.375    0.1016     2.6743     0.1608     0.119      0.8537     0.7542    
813.5      0.0948     1.941      0.1593     0.1102     0.8597     0.7723    
813.625    0.0902     1.5272     0.1582     0.1042     0.8655     0.7848    
813.75     0.0888     1.3207     0.1578     0.1012     0.8775     0.7911    
813.875    0.0916     1.3363     0.1579     0.1024     0.8942     0.7885    
814        0.0992     1.6146     0.159      0.1086     0.914      0.7758    
814.125    0.1117     2.2442     0.1608     0.1193     0.9365     0.7536    
814.25     0.1298     3.7075     0.1638     0.1364     0.9519     0.7184    
814.375    0.1573     8.5459     0.1695     0.1671     0.9415     0.6549    
814.5      0.1767     9.4605     0.1767     0.1767     1          0.5815    
814.625    0.1841     11.1465    0.1841     0.1841     1          0.5115    
814.75     0.1918     13.1478    0.1918     0.1918     1          0.4442    
814.875    0.2049     17.1214    0.2049     0.2049     1          0.3419    
815        0.2257     25.1998    0.2257     0.2257     1          0.204     
815.125    0.2335     28.8472    0.2335     0.2335     1          0.1587    
815.25     0.2321     28.1938    0.2321     0.2321     1          0.166     
815.375    0.2284     26.4401    0.2284     0.2284     1          0.1869    
815.5      0.2264     25.4989    0.2264     0.2264     1          0.1991    
815.625    0.2304     27.3783    0.2304     0.2304     1          0.1749    
815.75     0.2341     29.1781    0.2341     0.2341     1          0.1538    
815.875    0.2364     30.3432    0.2364     0.2364     1          0.1408    
816        0.2373     30.7812    0.2373     0.2373     1          0.1359    
816.125    0.2368     30.5616    0.2368     0.2368     1          0.138     
816.25     0.235      29.6339    0.235      0.235      1          0.1478    
816.375    0.233      28.6083    0.233      0.233      1          0.1589    
816.5      0.2312     27.7256    0.2312     0.2312     1          0.1691    
816.625    0.2299     27.12      0.2299     0.2299     1          0.1763    
816.75     0.2296     27.0058    0.2296     0.2296     1          0.1775    
816.875    0.2308     27.5805    0.2308     0.2308     1          0.1703    
817        0.2327     28.4894    0.2327     0.2327     1          0.1592    
817.125    0.2348     29.5424    0.2348     0.2348     1          0.1473    
817.25     0.2372     30.7184    0.2372     0.2372     1          0.1344    
817.375    0.2396     31.9938    0.2396     0.2396     1          0.1211    
817.5      0.2418     33.2086    0.2418     0.2418     1          0.109     
817.625    0.2435     34.1506    0.2435     0.2435     1          0.1       
817.75     0.2439     34.355     0.2439     0.2439     1          0.0977    
817.875    0.2428     33.7782    0.2428     0.2428     1          0.1028    
