~Version
 VERS              .         2.0                           : CWLS LOG ASCII STANDARD - VERSION 2.0
 WRAP              .         NO                            : ONE LINE PER DEPTH STEP
 DLM               .         SPACE                         : DELIMITING CHARACTER(SPACE TAB OR COMMA)
~Well Information
#_______________________________________________________________________________
#
#PARAMETER_NAME    .UNIT     VALUE                         : DESCRIPTION
#_______________________________________________________________________________
STRT               .M        25                            : First reference value
STOP               .M        3440                          : Last reference value
STEP               .M        0.125                         : Step increment
NULL               .         -9999                         : Missing value
COMP               .                                       : Company
WELL               .         trial-1                       : Well name
FLD                .         trial                         : Field
LOC                .         UNKNOWN                       : Location
CNTY               .                                       : County
STAT               .                                       : State
CTRY               .         MEXICO                        : Country
SRVC               .         UNKNOWN                       : Service Company
DATE               .         UNKNOWN                       : Date
UWI                .         20570423                      : Unique Well ID
YCOORD             .        				               : SURFACE Y
LON                .        				               : LONGITUDE
XCOORD             .        				               : SURFACE X
LAT                .        				               : LATITUDE
ELEV_TYPE          .         KB                            : ELEV TYPE
ELEV               .M        7.7600                        : SURFACE ELEV
group              .         trial                       : 
ORIGINALWELLNAME   .         trial-1                     : 
~Parameter Information Block
#_______________________________________________________________________________
#
#PARAMETER_NAME    .UNIT     VALUE                         : DESCRIPTION
#_______________________________________________________________________________
SET                .         Evaluacion_Final_OW           : 
TLFamily_PhiDss_2013 .         Array Resistivity             : 
TLFamily_BVW_2013  .         Bulk Fluid Volume             : 
TLFamily_K_Tixier  .         Permeability                  : 
TLFamily_PhiE_2013 .         Array Resistivity             : 
TLFamily_DEPTH     .         Measured Depth                : 
TLFamily_SwSiman_2013 .         Water Saturation              : 
TLFamily_VCL       .         Clay Volume                   : 
~Curve Information
#_______________________________________________________________________________
#
#LOGNAME           .UNIT     LOG_ID                        : DESCRIPTION
#_______________________________________________________________________________
DEPT              .M                                      : Measured Depth 
BVW_2013           .v/v                                    : v1 
K_Tixier           .mD                                     : v3 
PhiDss_2013        .v/v                                    : v5 
PhiE_2013          .v/v                                    : v4 
SwSiman_2013       .v/v                                    : v2 
VCL                .v/v                                    : v1 
~Ascii
# ...
1962       0.2341     29.148     0.2341     0.2341     1          0.2522    
1962.125   0.2355     29.8793    0.2355     0.2355     1          0.2428    
1962.25    0.2374     30.8441    0.2374     0.2374     1          0.2315    
1962.375   0.2393     31.8645    0.2393     0.2393     1          0.2197    
1962.5     0.2407     32.5806    0.2407     0.2407     1          0.2117    
1962.625   0.24       32.221     0.24       0.24       1          0.2153    
1962.75    0.2342     29.2386    0.2342     0.2342     1          0.2492    
1962.875   0.2257     25.1998    0.2257     0.2257     1          0.3032    
1963       0.2178     21.861     0.2178     0.2178     1          0.3565    
1963.125   0.2094     18.6703    0.2094     0.2094     1          0.4181    
1963.25    0.1998     15.4635    0.1998     0.1998     1          0.4951    
1963.375   0.1842     11.1748    0.1895     0.1842     1          0.5853    
1963.5     0.1665     7.469      0.1847     0.1665     1          0.6307    
1963.625   0.1583     6.094      0.1826     0.1583     1          0.652     
1963.75    0.1664     7.4406     0.1847     0.1664     1          0.6311    
1963.875   0.1965     14.4926    0.1965     0.1965     1          0.5211    
1964       0.2207     23.0272    0.2207     0.2207     1          0.3348    
1964.125   0.2299     27.1486    0.2299     0.2299     1          0.2733    
1964.25    0.2349     29.5729    0.2349     0.2349     1          0.2423    
1964.375   0.2373     30.8127    0.2373     0.2373     1          0.2273    
1964.5     0.2372     30.7498    0.2372     0.2372     1          0.2277    
1964.625   0.2353     29.7871    0.2353     0.2353     1          0.2389    
1964.75    0.2329     28.5785    0.2329     0.2329     1          0.2535    
1964.875   0.2292     26.7785    0.2292     0.2292     1          0.2767    
1965       0.2252     24.9571    0.2252     0.2252     1          0.3025    
1965.125   0.221      23.1794    0.221      0.221      1          0.33      
1965.25    0.2165     21.3545    0.2165     0.2165     1          0.361     
1965.375   0.2117     19.5053    0.2117     0.2117     1          0.396     
1965.5     0.2069     17.7997    0.2069     0.2069     1          0.4326    
1965.625   0.2005     15.6899    0.2005     0.2005     1          0.4841    
1965.75    0.1944     13.877     0.1944     0.1944     1          0.5359    
1965.875   0.1811     10.4546    0.1881     0.1811     1          0.5931    
1966       0.157      5.9021     0.1818     0.157      1          0.6552    
1966.125   0.1329     3.0255     0.1758     0.1329     1          0.7174    
1966.25    0.1106     1.4536     0.1707     0.1106     1          0.7747    
1966.375   0.0826     0.4512     0.1646     0.0826     1          0.8469    
1966.5     0.0636     0.1587     0.1607     0.0636     1          0.8957    
1966.625   0.0517     0.0695     0.1584     0.0517     1          0.9263    
1966.75    0.0441     0.0367     0.1569     0.0441     1          0.9459    
1966.875   0.0419     0.03       0.1565     0.0419     1          0.9514    
1967       0.0498     0.0596     0.1579     0.0498     1          0.9313    
1967.125   0.0648     0.1711     0.1608     0.0648     1          0.8926    
1967.25    0.1433     4.0948     0.1781     0.1433     1          0.6905    
1967.375   0.2047     17.0607    0.2047     0.2047     1          0.446     
1967.5     0.2168     21.4743    0.2168     0.2168     1          0.3543    
1967.625   0.2227     23.8994    0.2227     0.2227     1          0.3133    
1967.75    0.2253     25.0109    0.2253     0.2253     1          0.296     
1967.875   0.2257     25.1998    0.2257     0.2257     1          0.2929    
1968       0.2253     25.0109    0.2253     0.2253     1          0.2953    
1968.125   0.225      24.8766    0.225      0.225      1          0.2971    
1968.25    0.225      24.8766    0.225      0.225      1          0.297     
1968.375   0.2254     25.0647    0.2254     0.2254     1          0.2938    
1968.5     0.2262     25.4443    0.2262     0.2262     1          0.2881    
1968.625   0.2272     25.8833    0.2272     0.2272     1          0.2815    
1968.75    0.2284     26.412     0.2284     0.2284     1          0.2737    
1968.875   0.2288     26.6089    0.2288     0.2288     1          0.2709    
1969       0.2235     24.2394    0.2235     0.2235     1          0.3049    
1969.125   0.217      21.5224    0.217      0.217      1          0.3502    
1969.25    0.2103     18.9966    0.2103     0.2103     1          0.3989    
1969.375   0.2045     16.9801    0.2045     0.2045     1          0.4438    
1969.5     0.2        15.5387    0.2        0.2        1          0.4801    
1969.625   0.197      14.6181    0.197      0.197      1          0.5055    
1969.75    0.1959     14.3147    0.1959     0.1959     1          0.5146    
1969.875   0.1956     14.2087    0.1956     0.1956     1          0.517     
1970       0.1961     14.3679    0.1961     0.1961     1          0.5121    
1970.125   0.1967     14.5284    0.1967     0.1967     1          0.5072    
1970.25    0.1957     14.244     0.1957     0.1957     1          0.5152    
1970.375   0.1913     12.9989    0.1913     0.1913     1          0.5549    
1970.5     0.1782     9.8018     0.1864     0.1782     1          0.6006    
1970.625   0.1685     7.8231     0.1838     0.1685     1          0.6257    
1970.75    0.172      8.5059     0.1847     0.172      1          0.6166    
1970.875   0.1811     10.4369    0.187      0.1811     1          0.5933    
1971       0.179      9.9672     0.1865     0.179      1          0.5986    
1971.125   0.1569     5.8925     0.1807     0.1569     1          0.6554    
1971.25    0.1375     3.4723     0.1759     0.1375     1          0.7054    
1971.375   0.1206     2.0539     0.172      0.1206     1          0.749     
1971.5     0.1059     1.2224     0.1687     0.1059     1          0.7867    
1971.625   0.0945     0.7753     0.1662     0.0945     1          0.8161    
1971.75    0.0899     0.6335     0.1652     0.0899     1          0.8281    
1971.875   0.0911     0.6686     0.1655     0.0911     1          0.8249    
1972       0.1002     0.9789     0.1674     0.1002     1          0.8015    
1972.125   0.1113     1.4926     0.1698     0.1113     1          0.7728    
1972.25    0.1201     2.0229     0.1717     0.1201     1          0.7501    
1972.375   0.1239     2.2859     0.1725     0.1239     1          0.7406    
1972.5     0.1211     2.088      0.1719     0.1211     1          0.7477    
1972.625   0.1175     1.849      0.171      0.1175     1          0.757     
1972.75    0.116      1.76       0.1707     0.116      1          0.7607    
1972.875   0.1257     2.4213     0.1728     0.1257     1          0.7359    
1973       0.1484     4.7158     0.1782     0.1484     1          0.6773    
1973.125   0.1751     9.1394     0.185      0.1751     1          0.6085    
1973.25    0.1839     11.099     0.1873     0.1839     1          0.5861    
1973.375   0.189      12.4       0.189      0.189      1          0.5696    
1973.5     0.1907     12.8349    0.1907     0.1907     1          0.554     
1973.625   0.1921     13.2311    0.1921     0.1921     1          0.5404    
1973.75    0.1925     13.3484    0.1925     0.1925     1          0.536     
1973.875   0.1897     12.5758    0.1897     0.1897     1          0.5618    
1974       0.1856     11.5205    0.1876     0.1856     1          0.5817    
1974.125   0.1785     9.8596     0.1856     0.1785     1          0.5999    
1974.25    0.1702     8.1411     0.1835     0.1702     1          0.6214    
1974.375   0.161      6.5229     0.1811     0.161      1          0.645     
1974.5     0.1539     5.4513     0.1793     0.1539     1          0.6632    
1974.625   0.1504     4.9716     0.1784     0.1504     1          0.6722    
1974.75    0.1483     4.6932     0.1779     0.1483     1          0.6777    
1974.875   0.1465     4.4754     0.1774     0.1465     1          0.6822    
