~Version
 VERS              .         2.0                           : CWLS LOG ASCII STANDARD - VERSION 2.0
 WRAP              .         NO                            : ONE LINE PER DEPTH STEP
 DLM               .         SPACE                         : DELIMITING CHARACTER(SPACE TAB OR COMMA)
~Well Information
#_______________________________________________________________________________
#
#PARAMETER_NAME    .UNIT     VALUE                         : DESCRIPTION
#_______________________________________________________________________________
STRT               .M        25                            : First reference value
STOP               .M        3440                          : Last reference value
STEP               .M        0.125                         : Step increment
NULL               .         -9999                         : Missing value
COMP               .                                       : Company
WELL               .         trial-1                       : Well name
FLD                .         trial                         : Field
LOC                .         UNKNOWN                       : Location
CNTY               .                                       : County
STAT               .                                       : State
CTRY               .         MEXICO                        : Country
SRVC               .         UNKNOWN                       : Service Company
DATE               .         UNKNOWN                       : Date
UWI                .         20570423                      : Unique Well ID
YCOORD             .        				               : SURFACE Y
LON                .        				               : LONGITUDE
XCOORD             .        				               : SURFACE X
LAT                .        				               : LATITUDE
ELEV_TYPE          .         KB                            : ELEV TYPE
ELEV               .M        7.7600                        : SURFACE ELEV
group              .         trial                       : 
ORIGINALWELLNAME   .         trial-1                     : 
~Parameter Information Block
#_______________________________________________________________________________
#
#PARAMETER_NAME    .UNIT     VALUE                         : DESCRIPTION
#_______________________________________________________________________________
SET                .         Evaluacion_Final_OW           : 
TLFamily_PhiDss_2013 .         Array Resistivity             : 
TLFamily_BVW_2013  .         Bulk Fluid Volume             : 
TLFamily_K_Tixier  .         Permeability                  : 
TLFamily_PhiE_2013 .         Array Resistivity             : 
TLFamily_DEPTH     .         Measured Depth                : 
TLFamily_SwSiman_2013 .         Water Saturation              : 
TLFamily_VCL       .         Clay Volume                   : 
~Curve Information
#_______________________________________________________________________________
#
#LOGNAME           .UNIT     LOG_ID                        : DESCRIPTION
#_______________________________________________________________________________
DEPT              .M                                      : Measured Depth 
BVW_2013           .v/v                                    : v1 
K_Tixier           .mD                                     : v3 
PhiDss_2013        .v/v                                    : v5 
PhiE_2013          .v/v                                    : v4 
SwSiman_2013       .v/v                                    : v2 
VCL                .v/v                                    : v1 
~Ascii
# ...
1871       0.2411     32.8109    0.2411     0.2411     1          0.1422    
1871.125   0.2423     33.4757    0.2423     0.2423     1          0.1351    
1871.25    0.2436     34.1846    0.2436     0.2436     1          0.128     
1871.375   0.2448     34.9047    0.2448     0.2448     1          0.1207    
1871.5     0.2463     35.7416    0.2463     0.2463     1          0.1125    
1871.625   0.2479     36.665     0.2479     0.2479     1          0.1037    
1871.75    0.249      37.3511    0.249      0.249      1          0.0975    
1871.875   0.2489     37.2784    0.2489     0.2489     1          0.098     
1872       0.2472     36.2366    0.2472     0.2472     1          0.1076    
1872.125   0.2444     34.6634    0.2444     0.2444     1          0.1226    
1872.25    0.2419     33.2752    0.2419     0.2419     1          0.1367    
1872.375   0.2402     32.3514    0.2402     0.2402     1          0.1463    
1872.5     0.2388     31.6071    0.2388     0.2388     1          0.1545    
1872.625   0.2375     30.9072    0.2375     0.2375     1          0.1622    
1872.75    0.2361     30.157     0.2361     0.2361     1          0.1708    
1872.875   0.2342     29.2386    0.2342     0.2342     1          0.1818    
1873       0.2319     28.0762    0.2319     0.2319     1          0.1964    
1873.125   0.2297     27.0343    0.2297     0.2297     1          0.2098    
1873.25    0.2284     26.412     0.2284     0.2284     1          0.2183    
1873.375   0.2277     26.105     0.2277     0.2277     1          0.2225    
1873.5     0.2275     25.994     0.2275     0.2275     1          0.224     
1873.625   0.2274     25.9663    0.2274     0.2274     1          0.2243    
1873.75    0.2276     26.0772    0.2276     0.2276     1          0.2227    
1873.875   0.2279     26.2163    0.2279     0.2279     1          0.2208    
1874       0.2277     26.105     0.2277     0.2277     1          0.2221    
1874.125   0.2272     25.8558    0.2272     0.2272     1          0.2256    
1874.25    0.2265     25.5809    0.2265     0.2265     1          0.2295    
1874.375   0.2262     25.4171    0.2262     0.2262     1          0.232     
1874.5     0.226      25.3354    0.226      0.226      1          0.2328    
1874.625   0.2261     25.3898    0.2261     0.2261     1          0.2321    
1874.75    0.2264     25.4989    0.2264     0.2264     1          0.2305    
1874.875   0.2262     25.4443    0.2262     0.2262     1          0.2312    
1875       0.2255     25.0917    0.2255     0.2255     1          0.2364    
1875.125   0.2245     24.6628    0.2245     0.2245     1          0.2426    
1875.25    0.2235     24.2394    0.2235     0.2235     1          0.2491    
1875.375   0.2138     26.8282    0.224      0.224      0.9547     0.2458    
1875.5     0.206      30.702     0.2262     0.2262     0.9104     0.2309    
1875.625   0.2007     34.9017    0.2292     0.2292     0.8759     0.2118    
1875.75    0.1967     38.1613    0.231      0.231      0.8515     0.2       
1875.875   0.1963     40.1615    0.2328     0.2328     0.8431     0.1884    
1876       0.2055     39.3623    0.2356     0.2356     0.8722     0.1714    
1876.125   0.2185     37.762     0.2388     0.2388     0.9149     0.1523    
1876.25    0.2336     35.5376    0.2418     0.2418     0.9662     0.1354    
1876.375   0.2437     34.2527    0.2437     0.2437     1          0.1244    
1876.5     0.2442     34.5261    0.2442     0.2442     1          0.1216    
1876.625   0.243      33.8794    0.243      0.243      1          0.128     
1876.75    0.2408     32.6462    0.2408     0.2408     1          0.1405    
1876.875   0.2381     31.2238    0.2381     0.2381     1          0.1562    
1877       0.2352     29.7258    0.2352     0.2352     1          0.1733    
1877.125   0.2324     28.3118    0.2324     0.2324     1          0.1911    
1877.25    0.2299     27.12      0.2299     0.2299     1          0.2065    
1877.375   0.228      26.2443    0.228      0.228      1          0.2181    
1877.5     0.2267     25.6631    0.2267     0.2267     1          0.2265    
1877.625   0.2258     25.254     0.2258     0.2258     1          0.2323    
1877.75    0.2252     24.9571    0.2252     0.2252     1          0.2366    
1877.875   0.2245     24.6894    0.2245     0.2245     1          0.2406    
1878       0.2235     24.2394    0.2235     0.2235     1          0.2473    
1878.125   0.222      23.5888    0.222      0.222      1          0.2576    
1878.25    0.2204     22.9262    0.2204     0.2204     1          0.2682    
1878.375   0.2193     22.4757    0.2193     0.2193     1          0.2759    
1878.5     0.2191     22.3765    0.2191     0.2191     1          0.2773    
1878.625   0.2203     22.8758    0.2203     0.2203     1          0.269     
1878.75    0.2219     23.5373    0.2219     0.2219     1          0.2579    
1878.875   0.2238     24.3447    0.2238     0.2238     1          0.2455    
1879       0.2247     24.7695    0.2247     0.2247     1          0.2386    
1879.125   0.2244     24.6096    0.2244     0.2244     1          0.2411    
1879.25    0.2228     23.9255    0.2228     0.2228     1          0.2515    
1879.375   0.2225     23.8215    0.2225     0.2225     1          0.2532    
1879.5     0.2229     23.9776    0.2229     0.2229     1          0.2508    
1879.625   0.2219     23.5631    0.2219     0.2219     1          0.257     
1879.75    0.2202     22.8255    0.2202     0.2202     1          0.2692    
1879.875   0.2187     22.2283    0.2187     0.2187     1          0.2793    
1880       0.2184     22.0808    0.2184     0.2184     1          0.2816    
1880.125   0.2188     22.2776    0.2188     0.2188     1          0.2782    
1880.25    0.2205     22.9514    0.2205     0.2205     1          0.2668    
1880.375   0.2246     24.7161    0.2246     0.2246     1          0.2388    
1880.5     0.2299     27.1486    0.2299     0.2299     1          0.2041    
1880.625   0.233      28.6083    0.233      0.233      1          0.1853    
1880.75    0.2347     29.451     0.2347     0.2347     1          0.1746    
1880.875   0.2361     30.188     0.2361     0.2361     1          0.1658    
1881       0.2373     30.8127    0.2373     0.2373     1          0.1584    
1881.125   0.2376     30.9703    0.2376     0.2376     1          0.1568    
1881.25    0.2364     30.3432    0.2364     0.2364     1          0.1639    
1881.375   0.2345     29.3599    0.2345     0.2345     1          0.1756    
1881.5     0.2323     28.2822    0.2323     0.2323     1          0.189     
1881.625   0.2308     27.5515    0.2308     0.2308     1          0.1983    
1881.75    0.2305     27.4071    0.2305     0.2305     1          0.2001    
1881.875   0.2315     27.8713    0.2315     0.2315     1          0.194     
1882       0.2333     28.7873    0.2333     0.2333     1          0.1822    
1882.125   0.2357     29.9716    0.2357     0.2357     1          0.1675    
1882.25    0.2382     31.2875    0.2382     0.2382     1          0.1525    
1882.375   0.2402     32.3188    0.2402     0.2402     1          0.141     
1882.5     0.2416     33.0756    0.2416     0.2416     1          0.133     
1882.625   0.2424     33.5427    0.2424     0.2424     1          0.1278    
1882.75    0.243      33.8794    0.243      0.243      1          0.1244    
1882.875   0.2433     34.0487    0.2433     0.2433     1          0.1226    
1883       0.2435     34.1506    0.2435     0.2435     1          0.1217    
1883.125   0.2435     34.1166    0.2435     0.2435     1          0.1217    
1883.25    0.2424     33.5427    0.2424     0.2424     1          0.1277    
1883.375   0.2396     32.0262    0.2396     0.2396     1          0.1438    
1883.5     0.2368     30.5616    0.2368     0.2368     1          0.1602    
1883.625   0.2359     30.0951    0.2359     0.2359     1          0.1653    
1883.75    0.2359     30.0951    0.2359     0.2359     1          0.1654    
1883.875   0.235      29.6034    0.235      0.235      1          0.1711    
