~Version
 VERS              .         2.0                           : CWLS LOG ASCII STANDARD - VERSION 2.0
 WRAP              .         NO                            : ONE LINE PER DEPTH STEP
 DLM               .         SPACE                         : DELIMITING CHARACTER(SPACE TAB OR COMMA)
~Well Information
#_______________________________________________________________________________
#
#PARAMETER_NAME    .UNIT     VALUE                         : DESCRIPTION
#_______________________________________________________________________________
STRT               .M        25                            : First reference value
STOP               .M        3440                          : Last reference value
STEP               .M        0.125                         : Step increment
NULL               .         -9999                         : Missing value
COMP               .                                       : Company
WELL               .         trial-1                       : Well name
FLD                .         trial                         : Field
LOC                .         UNKNOWN                       : Location
CNTY               .                                       : County
STAT               .                                       : State
CTRY               .         MEXICO                        : Country
SRVC               .         UNKNOWN                       : Service Company
DATE               .         UNKNOWN                       : Date
UWI                .         20570423                      : Unique Well ID
YCOORD             .        				               : SURFACE Y
LON                .        				               : LONGITUDE
XCOORD             .        				               : SURFACE X
LAT                .        				               : LATITUDE
ELEV_TYPE          .         KB                            : ELEV TYPE
ELEV               .M        7.7600                        : SURFACE ELEV
group              .         trial                       : 
ORIGINALWELLNAME   .         trial-1                     : 
~Parameter Information Block
#_______________________________________________________________________________
#
#PARAMETER_NAME    .UNIT     VALUE                         : DESCRIPTION
#_______________________________________________________________________________
SET                .         Evaluacion_Final_OW           : 
TLFamily_PhiDss_2013 .         Array Resistivity             : 
TLFamily_BVW_2013  .         Bulk Fluid Volume             : 
TLFamily_K_Tixier  .         Permeability                  : 
TLFamily_PhiE_2013 .         Array Resistivity             : 
TLFamily_DEPTH     .         Measured Depth                : 
TLFamily_SwSiman_2013 .         Water Saturation              : 
TLFamily_VCL       .         Clay Volume                   : 
~Curve Information
#_______________________________________________________________________________
#
#LOGNAME           .UNIT     LOG_ID                        : DESCRIPTION
#_______________________________________________________________________________
DEPT              .M                                      : Measured Depth 
BVW_2013           .v/v                                    : v1 
K_Tixier           .mD                                     : v3 
PhiDss_2013        .v/v                                    : v5 
PhiE_2013          .v/v                                    : v4 
SwSiman_2013       .v/v                                    : v2 
VCL                .v/v                                    : v1 
~Ascii
# ...
883        0.2374     30.8441    0.2374     0.2374     1          0.1761    
883.125    0.2351     29.6646    0.2351     0.2351     1          0.1891    
883.25     0.2328     28.5488    0.2328     0.2328     1          0.2015    
883.375    0.2308     27.5805    0.2308     0.2308     1          0.2132    
883.5      0.2289     26.6653    0.2289     0.2289     1          0.2247    
883.625    0.2269     25.7455    0.2269     0.2269     1          0.2365    
883.75     0.2249     24.8498    0.2249     0.2249     1          0.2484    
883.875    0.2215     23.3835    0.2215     0.2215     1          0.2696    
884        0.2138     20.2759    0.2138     0.2138     1          0.3199    
884.125    0.2023     16.2669    0.2023     0.2023     1          0.4009    
884.25     0.1888     12.3523    0.1888     0.1888     1          0.509     
884.375    0.1684     9.149      0.1745     0.1729     0.9741     0.6429    
884.5      0.1483     5.4597     0.1703     0.1521     0.9752     0.686     
884.625    0.134      3.6275     0.1675     0.1373     0.9756     0.7164    
884.75     0.1175     1.8579     0.1638     0.1176     0.9996     0.7572    
884.875    0.0918     0.6908     0.1593     0.0918     1          0.8103    
885        0.0639     0.162      0.1547     0.0639     1          0.868     
885.125    0.0225     0.0025     0.1483     0.0225     1          0.9536    
885.25     0.0043     0          0.1456     0.0043     1          0.9911    
885.375    0.0016     0          0.1453     0.0016     1          0.9967    
885.5      0.0077     0          0.1461     0.0077     1          0.9842    
885.625    0.0176     0.0009     0.1476     0.0176     1          0.9637    
885.75     0.0291     0.0069     0.1493     0.0291     1          0.94      
885.875    0.0408     0.0268     0.151      0.0408     1          0.9158    
886        0.0429     0.033      0.1514     0.0429     1          0.9113    
886.125    0.0367     0.0177     0.1504     0.0367     1          0.9241    
886.25     0.0273     0.0054     0.149      0.0273     1          0.9436    
886.375    0.0209     0.0019     0.1481     0.0209     1          0.9569    
886.5      0.0192     0.0013     0.1478     0.0192     1          0.9603    
886.625    0.0187     0.0012     0.1478     0.0187     1          0.9614    
886.75     0.0183     0.0011     0.1477     0.0183     1          0.9622    
886.875    0.0181     0.001      0.1476     0.0181     1          0.9626    
887        0.0184     0.0011     0.1477     0.0184     1          0.962     
887.125    0.0198     0.0015     0.1479     0.0198     1          0.9591    
887.25     0.0271     0.0052     0.149      0.0271     1          0.9441    
887.375    0.0395     0.0236     0.1509     0.0395     1          0.9185    
887.5      0.0547     0.087      0.1533     0.0547     1          0.887     
887.625    0.0707     0.2424     0.1558     0.0707     1          0.854     
887.75     0.0858     0.5254     0.1584     0.0858     1          0.8229    
887.875    0.0996     0.9556     0.1607     0.0996     1          0.7943    
888        0.1148     1.6875     0.1634     0.1148     1          0.7629    
888.125    0.143      4.0655     0.1687     0.143      1          0.7046    
888.25     0.1673     8.1333     0.1738     0.1692     0.989      0.6506    
888.375    0.175      9.885      0.1774     0.1774     0.9864     0.6153    
888.5      0.1777     10.4143    0.1799     0.1799     0.9881     0.5912    
888.625    0.1791     11.1105    0.1823     0.1823     0.9826     0.5685    
888.75     0.1818     11.7864    0.185      0.185      0.9827     0.5442    
888.875    0.1867     12.666     0.1889     0.1889     0.9882     0.51      
889        0.1938     13.7272    0.1939     0.1939     0.9998     0.4686    
889.125    0.199      15.221     0.199      0.199      1          0.4282    
889.25     0.2025     16.345     0.2025     0.2025     1          0.401     
889.375    0.2052     17.2026    0.2052     0.2052     1          0.3816    
889.5      0.2076     18.0513    0.2076     0.2076     1          0.364     
889.625    0.2102     18.9529    0.2102     0.2102     1          0.3463    
889.75     0.2127     19.8878    0.2127     0.2127     1          0.3287    
889.875    0.2152     20.81      0.2152     0.2152     1          0.3123    
890        0.2177     21.8124    0.2177     0.2177     1          0.2959    
890.125    0.2205     22.9767    0.2205     0.2205     1          0.2776    
890.25     0.2239     24.3975    0.2239     0.2239     1          0.257     
890.375    0.2273     25.9386    0.2273     0.2273     1          0.2363    
890.5      0.2299     27.1486    0.2299     0.2299     1          0.221     
890.625    0.2301     27.2059    0.2301     0.2301     1          0.2203    
890.75     0.2293     26.8635    0.2293     0.2293     1          0.2248    
890.875    0.2291     26.7501    0.2291     0.2291     1          0.2261    
891        0.2294     26.8919    0.2294     0.2294     1          0.2243    
891.125    0.2301     27.2059    0.2301     0.2301     1          0.2205    
891.25     0.2308     27.5515    0.2308     0.2308     1          0.2162    
891.375    0.2316     27.9297    0.2316     0.2316     1          0.2119    
891.5      0.2314     27.8421    0.2314     0.2314     1          0.213     
891.625    0.2296     27.0058    0.2296     0.2296     1          0.2231    
891.75     0.2267     25.6631    0.2267     0.2267     1          0.2402    
891.875    0.2226     23.8475    0.2226     0.2226     1          0.2652    
892        0.2165     21.3545    0.2165     0.2165     1          0.3036    
892.125    0.2097     18.7786    0.2097     0.2097     1          0.35      
892.25     0.195      14.0334    0.195      0.195      1          0.4602    
892.375    0.1753     9.1654     0.1753     0.1753     1          0.6372    
892.5      0.0999     0.9686     0.1608     0.0999     1          0.7936    
892.625    0.0742     0.2944     0.1565     0.0742     1          0.8468    
892.75     0.0635     0.1583     0.1547     0.0635     1          0.8688    
892.875    0.0559     0.095      0.1535     0.0559     1          0.8845    
893        0.0496     0.0588     0.1525     0.0496     1          0.8975    
893.125    0.0445     0.0382     0.1518     0.0445     1          0.908     
893.25     0.0406     0.0265     0.1512     0.0406     1          0.916     
893.375    0.0379     0.02       0.1507     0.0379     1          0.9218    
893.5      0.0395     0.0237     0.151      0.0395     1          0.9183    
893.625    0.043      0.0331     0.1515     0.043      1          0.9113    
893.75     0.0471     0.0477     0.1522     0.0471     1          0.9028    
893.875    0.0505     0.0686     0.1528     0.0512     1          0.8942    
894        0.0534     0.0917     0.1534     0.0548     1          0.8869    
894.125    0.0551     0.1082     0.1537     0.0569     1          0.8825    
894.25     0.0517     0.0788     0.1531     0.0528     1          0.891     
894.375    0.0476     0.058      0.1524     0.0488     1          0.8992    
894.5      0.0442     0.0453     0.1519     0.0457     1          0.9056    
894.625    0.0425     0.0393     0.1517     0.044      1          0.9091    
894.75     0.0438     0.0407     0.1518     0.0448     1          0.9076    
894.875    0.052      0.0711     0.153      0.052      1          0.8926    
895        0.0664     0.1886     0.1553     0.0664     1          0.8629    
895.125    0.087      0.5572     0.1587     0.087      1          0.8203    
895.25     0.12       2.0143     0.1645     0.12       1          0.7522    
895.375    0.1528     8.1109     0.1729     0.164      0.9312     0.6612    
895.5      0.1662     12.2228    0.1807     0.1807     0.9201     0.5857    
895.625    0.1796     14.6548    0.1911     0.1911     0.94       0.4931    
895.75     0.1892     15.9283    0.1972     0.1972     0.9598     0.4439    
895.875    0.1975     16.5516    0.2013     0.2013     0.9813     0.4118    
