~Version
 VERS              .         2.0                           : CWLS LOG ASCII STANDARD - VERSION 2.0
 WRAP              .         NO                            : ONE LINE PER DEPTH STEP
 DLM               .         SPACE                         : DELIMITING CHARACTER(SPACE TAB OR COMMA)
~Well Information
#_______________________________________________________________________________
#
#PARAMETER_NAME    .UNIT     VALUE                         : DESCRIPTION
#_______________________________________________________________________________
STRT               .M        25                            : First reference value
STOP               .M        3440                          : Last reference value
STEP               .M        0.125                         : Step increment
NULL               .         -9999                         : Missing value
COMP               .                                       : Company
WELL               .         trial-1                       : Well name
FLD                .         trial                         : Field
LOC                .         UNKNOWN                       : Location
CNTY               .                                       : County
STAT               .                                       : State
CTRY               .         MEXICO                        : Country
SRVC               .         UNKNOWN                       : Service Company
DATE               .         UNKNOWN                       : Date
UWI                .         20570423                      : Unique Well ID
YCOORD             .        				               : SURFACE Y
LON                .        				               : LONGITUDE
XCOORD             .        				               : SURFACE X
LAT                .        				               : LATITUDE
ELEV_TYPE          .         KB                            : ELEV TYPE
ELEV               .M        7.7600                        : SURFACE ELEV
group              .         trial                       : 
ORIGINALWELLNAME   .         trial-1                     : 
~Parameter Information Block
#_______________________________________________________________________________
#
#PARAMETER_NAME    .UNIT     VALUE                         : DESCRIPTION
#_______________________________________________________________________________
SET                .         Evaluacion_Final_OW           : 
TLFamily_PhiDss_2013 .         Array Resistivity             : 
TLFamily_BVW_2013  .         Bulk Fluid Volume             : 
TLFamily_K_Tixier  .         Permeability                  : 
TLFamily_PhiE_2013 .         Array Resistivity             : 
TLFamily_DEPTH     .         Measured Depth                : 
TLFamily_SwSiman_2013 .         Water Saturation              : 
TLFamily_VCL       .         Clay Volume                   : 
~Curve Information
#_______________________________________________________________________________
#
#LOGNAME           .UNIT     LOG_ID                        : DESCRIPTION
#_______________________________________________________________________________
DEPT              .M                                      : Measured Depth 
BVW_2013           .v/v                                    : v1 
K_Tixier           .mD                                     : v3 
PhiDss_2013        .v/v                                    : v5 
PhiE_2013          .v/v                                    : v4 
SwSiman_2013       .v/v                                    : v2 
VCL                .v/v                                    : v1 
~Ascii
# ...
1624       0.2513     38.7147    0.2513     0.2513     1          0.1157    
1624.125   0.2514     38.7895    0.2514     0.2514     1          0.1152    
1624.25    0.2518     39.052     0.2518     0.2518     1          0.1132    
1624.375   0.2523     39.3536    0.2523     0.2523     1          0.1109    
1624.5     0.2527     39.6189    0.2527     0.2527     1          0.1088    
1624.625   0.253      39.8093    0.253      0.253      1          0.1073    
1624.75    0.2532     39.8856    0.2532     0.2532     1          0.1069    
1624.875   0.2528     39.657     0.2528     0.2528     1          0.1091    
1625       0.2517     38.9768    0.2517     0.2517     1          0.1151    
1625.125   0.2504     38.1574    0.2504     0.2504     1          0.1222    
1625.25    0.2491     37.3874    0.2491     0.2491     1          0.1294    
1625.375   0.2478     36.6291    0.2478     0.2478     1          0.1364    
1625.5     0.2465     35.8825    0.2465     0.2465     1          0.1436    
1625.625   0.2451     35.0432    0.2451     0.2451     1          0.1519    
1625.75    0.243      33.8794    0.243      0.243      1          0.1637    
1625.875   0.2413     32.91      0.2413     0.2413     1          0.1739    
1626       0.2399     32.1885    0.2399     0.2399     1          0.1818    
1626.125   0.2387     31.543     0.2387     0.2387     1          0.1889    
1626.25    0.2377     31.0019    0.2377     0.2377     1          0.1951    
1626.375   0.2372     30.7184    0.2372     0.2372     1          0.1985    
1626.5     0.237      30.6242    0.237      0.237      1          0.1999    
1626.625   0.237      30.6242    0.237      0.237      1          0.2002    
1626.75    0.237      30.6556    0.237      0.237      1          0.1997    
1626.875   0.2372     30.7498    0.2372     0.2372     1          0.1989    
1627       0.237      30.6242    0.237      0.237      1          0.2007    
1627.125   0.2361     30.188     0.2361     0.2361     1          0.2059    
1627.25    0.2345     29.3902    0.2345     0.2345     1          0.2155    
1627.375   0.2328     28.5191    0.2328     0.2328     1          0.2267    
1627.5     0.2313     27.8129    0.2313     0.2313     1          0.2358    
1627.625   0.2306     27.4648    0.2306     0.2306     1          0.2405    
1627.75    0.2311     27.6966    0.2311     0.2311     1          0.2378    
1627.875   0.2321     28.1643    0.2321     0.2321     1          0.2318    
1628       0.2335     28.8472    0.2335     0.2335     1          0.2232    
1628.125   0.2345     29.3599    0.2345     0.2345     1          0.2174    
1628.25    0.2338     28.9972    0.2338     0.2338     1          0.222     
1628.375   0.2325     28.3709    0.2325     0.2325     1          0.2299    
1628.5     0.2315     27.8713    0.2315     0.2315     1          0.2367    
1628.625   0.2307     27.5226    0.2307     0.2307     1          0.2412    
1628.75    0.232      28.135     0.232      0.232      1          0.2337    
1628.875   0.2358     30.0025    0.2358     0.2358     1          0.2106    
1629       0.2397     32.0586    0.2397     0.2397     1          0.1874    
1629.125   0.2422     33.4087    0.2422     0.2422     1          0.1733    
1629.25    0.2443     34.5947    0.2443     0.2443     1          0.1615    
1629.375   0.2461     35.6011    0.2461     0.2461     1          0.1522    
1629.5     0.2473     36.3434    0.2473     0.2473     1          0.1451    
1629.625   0.2484     36.9527    0.2484     0.2484     1          0.1396    
1629.75    0.2493     37.4968    0.2493     0.2493     1          0.1349    
1629.875   0.2502     38.0467    0.2502     0.2502     1          0.1302    
1630       0.2511     38.6028    0.2511     0.2511     1          0.1257    
1630.125   0.2519     39.0895    0.2519     0.2519     1          0.1217    
1630.25    0.2524     39.3914    0.2524     0.2524     1          0.1194    
1630.375   0.2522     39.278     0.2522     0.2522     1          0.1205    
1630.5     0.2513     38.752     0.2513     0.2513     1          0.1251    
1630.625   0.2501     38.0099    0.2501     0.2501     1          0.1317    
1630.75    0.2487     37.1696    0.2487     0.2487     1          0.1394    
1630.875   0.2473     36.3434    0.2473     0.2473     1          0.1474    
1631       0.2459     35.496     0.2459     0.2459     1          0.1554    
1631.125   0.2447     34.8012    0.2447     0.2447     1          0.1625    
1631.25    0.2443     34.5947    0.2443     0.2443     1          0.1644    
1631.375   0.245      34.9739    0.245      0.245      1          0.1609    
1631.5     0.2462     35.7064    0.2462     0.2462     1          0.1543    
1631.625   0.2475     36.4503    0.2475     0.2475     1          0.1473    
1631.75    0.2484     36.9888    0.2484     0.2484     1          0.1426    
1631.875   0.2472     36.2722    0.2472     0.2472     1          0.1493    
1632       0.2458     35.4609    0.2458     0.2458     1          0.1573    
1632.125   0.2445     34.6978    0.2445     0.2445     1          0.1647    
1632.25    0.2434     34.0827    0.2434     0.2434     1          0.1714    
1632.375   0.2389     34.389     0.2422     0.2422     0.9861     0.178     
1632.5     0.2373     33.5242    0.2407     0.2407     0.9858     0.1871    
1632.625   0.2388     31.6071    0.2388     0.2388     1          0.1981    
1632.75    0.237      30.6556    0.237      0.237      1          0.209     
1632.875   0.2357     29.9716    0.2357     0.2357     1          0.2172    
1633       0.2304     30.7914    0.235      0.235      0.9805     0.2216    
1633.125   0.2253     32.0632    0.2348     0.2348     0.9594     0.2228    
1633.25    0.2241     33.2476    0.2358     0.2358     0.9504     0.2168    
1633.375   0.2301     32.5244    0.237      0.237      0.9708     0.2097    
1633.5     0.2384     31.3831    0.2384     0.2384     1          0.2017    
1633.625   0.2398     32.1235    0.2398     0.2398     1          0.1939    
1633.75    0.241      32.7779    0.241      0.241      1          0.1871    
1633.875   0.2332     36.0377    0.2422     0.2422     0.9628     0.1806    
1634       0.2226     41.0446    0.2437     0.2437     0.9135     0.1719    
1634.125   0.2132     46.6385    0.2454     0.2454     0.869      0.1627    
1634.25    0.2061     51.6269    0.2468     0.2468     0.8353     0.1554    
1634.375   0.2011     55.1547    0.2475     0.2475     0.8125     0.1517    
1634.5     0.1972     57.351     0.2475     0.2475     0.7968     0.1521    
1634.625   0.1959     56.6658    0.2464     0.2464     0.795      0.1577    
1634.75    0.2004     53.2574    0.2458     0.2458     0.8156     0.1618    
1634.875   0.2074     49.0915    0.2452     0.2452     0.8457     0.1649    
1635       0.2165     43.5442    0.2438     0.2438     0.8878     0.1729    
1635.125   0.2282     35.9596    0.2404     0.2404     0.9495     0.1928    
1635.25    0.2341     29.148     0.2341     0.2341     1          0.2305    
1635.375   0.2291     26.7501    0.2291     0.2291     1          0.2615    
1635.5     0.2247     24.7695    0.2247     0.2247     1          0.2902    
1635.625   0.2214     23.3323    0.2214     0.2214     1          0.313     
1635.75    0.219      22.3517    0.219      0.219      1          0.3294    
1635.875   0.2175     21.7396    0.2175     0.2175     1          0.3402    
1636       0.2167     21.4024    0.2167     0.2167     1          0.3466    
1636.125   0.2168     21.4504    0.2168     0.2168     1          0.3459    
1636.25    0.2173     21.6429    0.2173     0.2173     1          0.3425    
1636.375   0.218      21.9342    0.218      0.218      1          0.3374    
1636.5     0.2187     22.2037    0.2187     0.2187     1          0.3332    
1636.625   0.2185     22.1545    0.2185     0.2185     1          0.3343    
1636.75    0.2191     22.3765    0.2191     0.2191     1          0.3306    
1636.875   0.2206     23.0019    0.2206     0.2206     1          0.3202    
