~Version
 VERS              .         2.0                           : CWLS LOG ASCII STANDARD - VERSION 2.0
 WRAP              .         NO                            : ONE LINE PER DEPTH STEP
 DLM               .         SPACE                         : DELIMITING CHARACTER(SPACE TAB OR COMMA)
~Well Information
#_______________________________________________________________________________
#
#PARAMETER_NAME    .UNIT     VALUE                         : DESCRIPTION
#_______________________________________________________________________________
STRT               .M        25                            : First reference value
STOP               .M        3440                          : Last reference value
STEP               .M        0.125                         : Step increment
NULL               .         -9999                         : Missing value
COMP               .                                       : Company
WELL               .         trial-1                       : Well name
FLD                .         trial                         : Field
LOC                .         UNKNOWN                       : Location
CNTY               .                                       : County
STAT               .                                       : State
CTRY               .         MEXICO                        : Country
SRVC               .         UNKNOWN                       : Service Company
DATE               .         UNKNOWN                       : Date
UWI                .         20570423                      : Unique Well ID
YCOORD             .        				               : SURFACE Y
LON                .        				               : LONGITUDE
XCOORD             .        				               : SURFACE X
LAT                .        				               : LATITUDE
ELEV_TYPE          .         KB                            : ELEV TYPE
ELEV               .M        7.7600                        : SURFACE ELEV
group              .         trial                       : 
ORIGINALWELLNAME   .         trial-1                     : 
~Parameter Information Block
#_______________________________________________________________________________
#
#PARAMETER_NAME    .UNIT     VALUE                         : DESCRIPTION
#_______________________________________________________________________________
SET                .         Evaluacion_Final_OW           : 
TLFamily_PhiDss_2013 .         Array Resistivity             : 
TLFamily_BVW_2013  .         Bulk Fluid Volume             : 
TLFamily_K_Tixier  .         Permeability                  : 
TLFamily_PhiE_2013 .         Array Resistivity             : 
TLFamily_DEPTH     .         Measured Depth                : 
TLFamily_SwSiman_2013 .         Water Saturation              : 
TLFamily_VCL       .         Clay Volume                   : 
~Curve Information
#_______________________________________________________________________________
#
#LOGNAME           .UNIT     LOG_ID                        : DESCRIPTION
#_______________________________________________________________________________
DEPT              .M                                      : Measured Depth 
BVW_2013           .v/v                                    : v1 
K_Tixier           .mD                                     : v3 
PhiDss_2013        .v/v                                    : v5 
PhiE_2013          .v/v                                    : v4 
SwSiman_2013       .v/v                                    : v2 
VCL                .v/v                                    : v1 
~Ascii
# ...
1052       0.0877     0.5743     0.1572     0.0877     1          0.8625    
1052.125   0.0714     0.2529     0.1547     0.0714     1          0.894     
1052.25    0.0566     0.0999     0.1524     0.0566     1          0.9226    
1052.375   0.0442     0.0369     0.1506     0.0442     1          0.9468    
1052.5     0.0348     0.0142     0.1493     0.0348     1          0.9649    
1052.625   0.0284     0.0063     0.1484     0.0284     1          0.9773    
1052.75    0.0275     0.0055     0.1482     0.0275     1          0.9791    
1052.875   0.0295     0.0073     0.1485     0.0295     1          0.9752    
1053       0.0332     0.0118     0.149      0.0332     1          0.968     
1053.125   0.0379     0.02       0.1497     0.0379     1          0.959     
1053.25    0.0426     0.032      0.1504     0.0426     1          0.9498    
1053.375   0.0458     0.0428     0.1508     0.0458     1          0.9436    
1053.5     0.0471     0.0479     0.151      0.0471     1          0.941     
1053.625   0.0475     0.0495     0.1511     0.0475     1          0.9403    
1053.75    0.0465     0.0454     0.151      0.0465     1          0.9423    
1053.875   0.0441     0.0367     0.1506     0.0441     1          0.9469    
1054       0.0414     0.0286     0.1502     0.0414     1          0.9521    
1054.125   0.0398     0.0245     0.15       0.0398     1          0.9552    
1054.25    0.0399     0.0246     0.15       0.0399     1          0.955     
1054.375   0.0381     0.0204     0.1497     0.0381     1          0.9586    
1054.5     0.0345     0.0138     0.1492     0.0345     1          0.9655    
1054.625   0.0311     0.0091     0.1487     0.0311     1          0.9721    
1054.75    0.0286     0.0065     0.1484     0.0286     1          0.9769    
1054.875   0.0276     0.0056     0.1482     0.0276     1          0.9788    
1055       0.0292     0.0071     0.1485     0.0292     1          0.9757    
1055.125   0.0325     0.0108     0.1489     0.0325     1          0.9694    
1055.25    0.0366     0.0174     0.1495     0.0366     1          0.9615    
1055.375   0.0412     0.0281     0.1502     0.0412     1          0.9525    
1055.5     0.0467     0.0461     0.151      0.0467     1          0.9419    
1055.625   0.0524     0.073      0.1518     0.0524     1          0.9309    
1055.75    0.0584     0.1126     0.1527     0.0584     1          0.9193    
1055.875   0.0646     0.1696     0.1536     0.0646     1          0.9071    
1056       0.0712     0.2496     0.1546     0.0712     1          0.8945    
1056.125   0.078      0.3601     0.1556     0.078      1          0.8812    
1056.25    0.0837     0.4776     0.1565     0.0837     1          0.8702    
1056.375   0.0743     0.2965     0.1551     0.0743     1          0.8884    
1056.5     0.0607     0.1321     0.153      0.0607     1          0.9147    
1056.625   0.0494     0.058      0.1513     0.0494     1          0.9366    
1056.75    0.0411     0.0276     0.1501     0.0411     1          0.9528    
1056.875   0.0414     0.0286     0.1502     0.0414     1          0.9521    
1057       0.052      0.0709     0.1517     0.052      1          0.9317    
1057.125   0.0662     0.1863     0.1538     0.0662     1          0.9042    
1057.25    0.0782     0.4789     0.1562     0.0819     0.9547     0.8738    
1057.375   0.0857     1.2444     0.159      0.099      0.866      0.8406    
1057.5     0.0936     3.2568     0.1624     0.1197     0.7819     0.8007    
1057.625   0.0994     8.2273     0.1663     0.1425     0.6978     0.7564    
1057.75    0.105      20.3089    0.171      0.1687     0.6224     0.7057    
1057.875   0.1049     26.4313    0.1762     0.1762     0.5954     0.6537    
1058       0.105      31.4526    0.1815     0.1815     0.5786     0.6044    
1058.125   0.1054     36.493     0.1862     0.1862     0.5658     0.5612    
1058.25    0.105      40.8004    0.1895     0.1895     0.5541     0.5333    
1058.375   0.1035     44.1087    0.1911     0.1911     0.5418     0.5201    
1058.5     0.1022     46.9516    0.1922     0.1922     0.5315     0.5104    
1058.625   0.1015     49.2343    0.1933     0.1933     0.525      0.5014    
1058.75    0.1017     50.7588    0.1944     0.1944     0.5229     0.4925    
1058.875   0.1025     51.5592    0.1955     0.1955     0.5243     0.4844    
1059       0.1045     50.4609    0.196      0.196      0.5329     0.4801    
1059.125   0.1071     47.4433    0.1956     0.1956     0.5476     0.4829    
1059.25    0.1101     43.3216    0.1945     0.1945     0.5663     0.4922    
1059.375   0.1137     38.7361    0.1929     0.1929     0.5892     0.5048    
1059.5     0.1181     34.1498    0.1913     0.1913     0.6174     0.5177    
1059.625   0.1231     29.4204    0.1892     0.1892     0.6505     0.5355    
1059.75    0.1287     24.9564    0.1868     0.1868     0.6887     0.5557    
1059.875   0.1337     20.8713    0.1837     0.1837     0.7279     0.5837    
1060       0.1371     17.0557    0.1791     0.1791     0.7653     0.6261    
1060.125   0.1392     13.7424    0.1736     0.1736     0.8015     0.6789    
1060.25    0.1387     7.9992     0.1692     0.1585     0.8753     0.7255    
1060.375   0.126      2.4465     0.1634     0.126      1          0.7884    
1060.5     0.0915     0.6815     0.1577     0.0915     1          0.8551    
1060.625   0.0701     0.2343     0.1544     0.0701     1          0.8966    
1060.75    0.0609     0.1333     0.153      0.0609     1          0.9144    
1060.875   0.0573     0.1045     0.1525     0.0573     1          0.9214    
1061       0.0578     0.1082     0.1525     0.0578     1          0.9204    
1061.125   0.0601     0.1271     0.1529     0.0601     1          0.9159    
1061.25    0.0625     0.1484     0.1532     0.0625     1          0.9112    
1061.375   0.064      0.1633     0.1535     0.064      1          0.9083    
1061.5     0.0642     0.1649     0.1535     0.0642     1          0.908     
1061.625   0.0628     0.1506     0.1533     0.0628     1          0.9108    
1061.75    0.0587     0.1151     0.1527     0.0587     1          0.9187    
1061.875   0.0541     0.0833     0.152      0.0541     1          0.9275    
1062       0.0493     0.0572     0.1513     0.0493     1          0.9369    
1062.125   0.0444     0.0378     0.1505     0.0444     1          0.9463    
1062.25    0.0401     0.0252     0.1499     0.0401     1          0.9546    
1062.375   0.0376     0.0194     0.1496     0.0376     1          0.9595    
1062.5     0.0427     0.0324     0.1503     0.0427     1          0.9495    
1062.625   0.0514     0.0677     0.1516     0.0514     1          0.9328    
1062.75    0.0644     0.1676     0.1535     0.0644     1          0.9075    
1062.875   0.0804     0.4062     0.1559     0.0804     1          0.8766    
1063       0.0965     0.8407     0.1585     0.0965     1          0.8456    
1063.125   0.1175     1.8488     0.1619     0.1175     1          0.8049    
1063.25    0.1344     3.1644     0.1648     0.1344     1          0.7722    
1063.375   0.1479     4.7689     0.1673     0.1485     0.9955     0.7448    
1063.5     0.1543     6.9601     0.1695     0.1604     0.9616     0.7217    
1063.625   0.1576     9.5123     0.1713     0.1702     0.926      0.7028    
1063.75    0.1567     10.483     0.1727     0.1727     0.9074     0.6883    
1063.875   0.1487     11.7056    0.1728     0.1728     0.8606     0.6865    
1064       0.1392     13.1086    0.1723     0.1723     0.8081     0.6924    
1064.125   0.1291     14.4707    0.1714     0.1708     0.7559     0.7016    
1064.25    0.1185     14.217     0.1704     0.1655     0.7161     0.7119    
1064.375   0.1095     13.9085    0.1695     0.1606     0.6816     0.7214    
1064.5     0.1038     15.3564    0.1695     0.1604     0.6473     0.7217    
1064.625   0.1031     21.5918    0.1711     0.1694     0.6085     0.7044    
1064.75    0.1021     25.3935    0.1735     0.1735     0.5884     0.6804    
1064.875   0.1017     27.9659    0.1761     0.1761     0.5776     0.6542    
