~Version
 VERS              .         2.0                           : CWLS LOG ASCII STANDARD - VERSION 2.0
 WRAP              .         NO                            : ONE LINE PER DEPTH STEP
 DLM               .         SPACE                         : DELIMITING CHARACTER(SPACE TAB OR COMMA)
~Well Information
#_______________________________________________________________________________
#
#PARAMETER_NAME    .UNIT     VALUE                         : DESCRIPTION
#_______________________________________________________________________________
STRT               .M        25                            : First reference value
STOP               .M        3440                          : Last reference value
STEP               .M        0.125                         : Step increment
NULL               .         -9999                         : Missing value
COMP               .                                       : Company
WELL               .         trial-1                       : Well name
FLD                .         trial                         : Field
LOC                .         UNKNOWN                       : Location
CNTY               .                                       : County
STAT               .                                       : State
CTRY               .         MEXICO                        : Country
SRVC               .         UNKNOWN                       : Service Company
DATE               .         UNKNOWN                       : Date
UWI                .         20570423                      : Unique Well ID
YCOORD             .        				               : SURFACE Y
LON                .        				               : LONGITUDE
XCOORD             .        				               : SURFACE X
LAT                .        				               : LATITUDE
ELEV_TYPE          .         KB                            : ELEV TYPE
ELEV               .M        7.7600                        : SURFACE ELEV
group              .         trial                       : 
ORIGINALWELLNAME   .         trial-1                     : 
~Parameter Information Block
#_______________________________________________________________________________
#
#PARAMETER_NAME    .UNIT     VALUE                         : DESCRIPTION
#_______________________________________________________________________________
SET                .         Evaluacion_Final_OW           : 
TLFamily_PhiDss_2013 .         Array Resistivity             : 
TLFamily_BVW_2013  .         Bulk Fluid Volume             : 
TLFamily_K_Tixier  .         Permeability                  : 
TLFamily_PhiE_2013 .         Array Resistivity             : 
TLFamily_DEPTH     .         Measured Depth                : 
TLFamily_SwSiman_2013 .         Water Saturation              : 
TLFamily_VCL       .         Clay Volume                   : 
~Curve Information
#_______________________________________________________________________________
#
#LOGNAME           .UNIT     LOG_ID                        : DESCRIPTION
#_______________________________________________________________________________
DEPT              .M                                      : Measured Depth 
BVW_2013           .v/v                                    : v1 
K_Tixier           .mD                                     : v3 
PhiDss_2013        .v/v                                    : v5 
PhiE_2013          .v/v                                    : v4 
SwSiman_2013       .v/v                                    : v2 
VCL                .v/v                                    : v1 
~Ascii
# ...
974        0.0201     0.0016     0.1419     0.0202     0.9963     0.9798    
974.125    0.0209     0.0025     0.1422     0.022      0.9502     0.976     
974.25     0.0245     0.0075     0.143      0.0278     0.8805     0.9639    
974.375    0.0295     0.0275     0.1443     0.0367     0.8023     0.9453    
974.5      0.0358     0.105      0.1461     0.049      0.7302     0.9197    
974.625    0.0456     0.4775     0.149      0.0684     0.6672     0.8792    
974.75     0.0628     3.1647     0.1546     0.1043     0.6023     0.8043    
974.875    0.0797     15.4483    0.1619     0.147      0.5418     0.715     
975        0.0879     30.3027    0.1699     0.1699     0.517      0.6246    
975.125    0.0896     35.5417    0.1756     0.1756     0.5099     0.5662    
975.25     0.0897     39.6901    0.179      0.179      0.501      0.5344    
975.375    0.0903     43.4048    0.1821     0.1821     0.4958     0.5051    
975.5      0.0916     47.0425    0.1854     0.1854     0.4938     0.4754    
975.625    0.0917     48.3768    0.1864     0.1864     0.4921     0.4671    
975.75     0.0918     49.3432    0.187      0.187      0.4907     0.4618    
975.875    0.0922     50.2408    0.1879     0.1879     0.4908     0.4551    
976        0.0934     50.7003    0.189      0.189      0.4942     0.446     
976.125    0.0959     50.1802    0.1903     0.1903     0.5038     0.4354    
976.25     0.0969     47.7279    0.1894     0.1894     0.5117     0.4437    
976.375    0.0961     44.195     0.1865     0.1865     0.5155     0.4698    
976.5      0.0959     40.9666    0.184      0.184      0.5213     0.4926    
976.625    0.0973     37.9061    0.1825     0.1825     0.533      0.5073    
976.75     0.0998     34.8699    0.1815     0.1815     0.5499     0.5169    
976.875    0.0996     34.3373    0.1809     0.1809     0.5504     0.523     
977        0.0987     34.4598    0.1805     0.1805     0.5469     0.528     
977.125    0.0979     34.507     0.1801     0.1801     0.5439     0.5324    
977.25     0.0979     34.2104    0.1798     0.1798     0.5444     0.5359    
977.375    0.099      33.0819    0.1795     0.1795     0.5518     0.5391    
977.5      0.1021     30.6947    0.179      0.179      0.5701     0.5439    
977.625    0.1086     26.4788    0.1783     0.1783     0.6089     0.5518    
977.75     0.1175     21.689     0.1771     0.1771     0.6636     0.5644    
977.875    0.1258     16.8642    0.1737     0.1737     0.724      0.5986    
978        0.1325     13.0072    0.1693     0.1693     0.7829     0.6463    
978.125    0.1343     7.8323     0.1648     0.1562     0.8596     0.6958    
978.25     0.1279     2.9497     0.1604     0.1306     0.9793     0.7492    
978.375    0.1048     1.1709     0.156      0.1048     1          0.8032    
978.5      0.0797     0.3917     0.1521     0.0797     1          0.8556    
978.625    0.0594     0.1212     0.149      0.0594     1          0.8979    
978.75     0.0463     0.0446     0.1471     0.0463     1          0.9253    
978.875    0.0414     0.0286     0.1464     0.0414     1          0.9355    
979        0.0542     0.0836     0.1484     0.0542     1          0.9089    
979.125    0.0994     0.9488     0.1554     0.0994     1          0.8144    
979.25     0.1305     2.8191     0.1607     0.1305     1          0.7494    
979.375    0.1416     4.7487     0.1636     0.1463     0.9678     0.7165    
979.5      0.1459     6.5358     0.1653     0.1558     0.9363     0.6966    
979.625    0.1536     8.5127     0.1672     0.1657     0.927      0.6761    
979.75     0.1567     7.917      0.1671     0.1648     0.9512     0.6779    
979.875    0.1536     5.4121     0.1651     0.1536     0.9997     0.7012    
980        0.1334     3.0714     0.1615     0.1334     1          0.7435    
980.125    0.1069     1.2681     0.157      0.1069     1          0.7988    
980.25     0.079      0.378      0.1525     0.079      1          0.8571    
980.375    0.0604     0.1294     0.1498     0.0604     1          0.8958    
980.5      0.0483     0.0528     0.1479     0.0483     1          0.9212    
980.625    0.0375     0.0193     0.1464     0.0375     1          0.9436    
980.75     0.0277     0.0057     0.1451     0.0277     1          0.9641    
980.875    0.0187     0.0012     0.1438     0.0187     1          0.9829    
981        0.0098     0.0001000  0.1427     0.0098     1          1         
981.125    0.0047     0          0.142      0.0047     1          1         
981.25     0.0079     0          0.1425     0.0079     1          1         
981.375    0.0171     0.0008     0.1438     0.0171     1          0.9863    
981.5      0.0295     0.0074     0.1456     0.0295     1          0.9603    
981.625    0.0426     0.032      0.1475     0.0426     1          0.933     
981.75     0.0543     0.0844     0.1493     0.0543     1          0.9086    
981.875    0.0481     0.052      0.1484     0.0481     1          0.9215    
982        0.0343     0.0134     0.1464     0.0343     1          0.9504    
982.125    0.0208     0.0018     0.1445     0.0208     1          0.9785    
982.25     0.0124     0.0002     0.1434     0.0124     1          0.996     
982.375    0.0101     0.0001000  0.1431     0.0101     1          1         
982.5      0.0234     0.0029     0.145      0.0234     1          0.973     
982.625    0.0407     0.0267     0.1476     0.0407     1          0.937     
982.75     0.064      0.1631     0.1511     0.064      1          0.8883    
982.875    0.0878     0.5768     0.1549     0.0878     1          0.8387    
983        0.105      1.1782     0.1578     0.105      1          0.8029    
983.125    0.1075     1.7267     0.1592     0.1127     0.9532     0.7866    
983.25     0.0977     0.8835     0.1567     0.0977     1          0.8181    
983.375    0.078      0.3602     0.1535     0.078      1          0.859     
983.5      0.0594     0.1207     0.1507     0.0594     1          0.898     
983.625    0.0443     0.0374     0.1484     0.0443     1          0.9295    
983.75     0.0334     0.0121     0.1468     0.0334     1          0.9522    
983.875    0.0296     0.0074     0.1464     0.0296     1          0.9602    
984        0.0332     0.0118     0.1469     0.0332     1          0.9527    
984.125    0.0424     0.0313     0.1483     0.0424     1          0.9335    
984.25     0.0527     0.0748     0.1499     0.0527     1          0.912     
984.375    0.0591     0.1252     0.151      0.0597     0.9912     0.8974    
984.5      0.0612     0.1359     0.1513     0.0612     1          0.8943    
984.625    0.0624     0.1474     0.1515     0.0624     1          0.8917    
984.75     0.0642     0.1648     0.1518     0.0642     1          0.888     
984.875    0.0662     0.187      0.1522     0.0662     1          0.8837    
985        0.069      0.2201     0.1527     0.069      1          0.8779    
985.125    0.0734     0.2816     0.1534     0.0734     1          0.8688    
985.25     0.0808     0.4147     0.1546     0.0808     1          0.8532    
985.375    0.091      0.9712     0.1573     0.0969     0.9387     0.8197    
985.5      0.0982     2.3488     0.1605     0.1152     0.8529     0.7815    
985.625    0.1048     5.2315     0.1639     0.1345     0.7794     0.7412    
985.75     0.1138     11.21      0.1682     0.157      0.7251     0.6943    
985.875    0.1222     18.3171    0.1744     0.1744     0.7005     0.6286    
986        0.1253     20.2106    0.1788     0.1788     0.7007     0.5863    
986.125    0.1253     20.4479    0.1792     0.1792     0.6995     0.5831    
986.25     0.1227     19.3178    0.1762     0.1762     0.6964     0.6123    
986.375    0.1191     17.5778    0.1718     0.1718     0.6934     0.6585    
986.5      0.111      9.9678     0.1676     0.1526     0.7272     0.7033    
986.625    0.1061     6.1365     0.1651     0.1387     0.7652     0.7324    
986.75     0.1034     3.8491     0.1631     0.1272     0.8129     0.7564    
986.875    0.0994     2.1599     0.1608     0.114      0.872      0.7839    
