~Version
 VERS              .         2.0                           : CWLS LOG ASCII STANDARD - VERSION 2.0
 WRAP              .         NO                            : ONE LINE PER DEPTH STEP
 DLM               .         SPACE                         : DELIMITING CHARACTER(SPACE TAB OR COMMA)
~Well Information
#_______________________________________________________________________________
#
#PARAMETER_NAME    .UNIT     VALUE                         : DESCRIPTION
#_______________________________________________________________________________
STRT               .M        25                            : First reference value
STOP               .M        3440                          : Last reference value
STEP               .M        0.125                         : Step increment
NULL               .         -9999                         : Missing value
COMP               .                                       : Company
WELL               .         trial-1                       : Well name
FLD                .         trial                         : Field
LOC                .         UNKNOWN                       : Location
CNTY               .                                       : County
STAT               .                                       : State
CTRY               .         MEXICO                        : Country
SRVC               .         UNKNOWN                       : Service Company
DATE               .         UNKNOWN                       : Date
UWI                .         20570423                      : Unique Well ID
YCOORD             .        				               : SURFACE Y
LON                .        				               : LONGITUDE
XCOORD             .        				               : SURFACE X
LAT                .        				               : LATITUDE
ELEV_TYPE          .         KB                            : ELEV TYPE
ELEV               .M        7.7600                        : SURFACE ELEV
group              .         trial                       : 
ORIGINALWELLNAME   .         trial-1                     : 
~Parameter Information Block
#_______________________________________________________________________________
#
#PARAMETER_NAME    .UNIT     VALUE                         : DESCRIPTION
#_______________________________________________________________________________
SET                .         Evaluacion_Final_OW           : 
TLFamily_PhiDss_2013 .         Array Resistivity             : 
TLFamily_BVW_2013  .         Bulk Fluid Volume             : 
TLFamily_K_Tixier  .         Permeability                  : 
TLFamily_PhiE_2013 .         Array Resistivity             : 
TLFamily_DEPTH     .         Measured Depth                : 
TLFamily_SwSiman_2013 .         Water Saturation              : 
TLFamily_VCL       .         Clay Volume                   : 
~Curve Information
#_______________________________________________________________________________
#
#LOGNAME           .UNIT     LOG_ID                        : DESCRIPTION
#_______________________________________________________________________________
DEPT              .M                                      : Measured Depth 
BVW_2013           .v/v                                    : v1 
K_Tixier           .mD                                     : v3 
PhiDss_2013        .v/v                                    : v5 
PhiE_2013          .v/v                                    : v4 
SwSiman_2013       .v/v                                    : v2 
VCL                .v/v                                    : v1 
~Ascii
# ...
1377       0.0776     0.3521     0.1598     0.0776     1          0.831     
1377.125   0.0512     0.0668     0.1547     0.0512     1          0.8885    
1377.25    0.0334     0.012      0.1515     0.0334     1          0.9273    
1377.375   0.0207     0.0018     0.1493     0.0207     1          0.955     
1377.5     0.0125     0.0002     0.1479     0.0125     1          0.9727    
1377.625   0.0069     0          0.1469     0.0069     1          0.985     
1377.75    0.0028     0          0.1462     0.0028     1          0.9939    
1377.875   0.0002     0          0.1458     0.0002     1          0.9996    
1378       0.0003     0          0.1458     0.0003     1          0.9994    
1378.125   0.0029     0          0.1463     0.0032     1          0.993     
1378.25    0.007      0          0.1471     0.0078     1          0.9831    
1378.375   0.0119     0.0003     0.1479     0.0128     1          0.9721    
1378.5     0.0168     0.0008     0.1487     0.0169     1          0.9631    
1378.625   0.019      0.0013     0.149      0.019      1          0.9586    
1378.75    0.0191     0.0013     0.1491     0.0191     1          0.9585    
1378.875   0.0171     0.0008     0.1487     0.0171     1          0.9628    
1379       0.0142     0.0004     0.1482     0.0142     1          0.9691    
1379.125   0.0108     0.0001000  0.1477     0.0108     1          0.9765    
1379.25    0.0074     0          0.1471     0.0074     1          0.9839    
1379.375   0.0047     0          0.1467     0.0047     1          0.9898    
1379.5     0.0041     0          0.1465     0.0041     1          0.991     
1379.625   0.008      0          0.1472     0.008      1          0.9826    
1379.75    0.015      0.0005     0.1484     0.015      1          0.9673    
1379.875   0.0246     0.0036     0.1501     0.0246     1          0.9464    
1380       0.0361     0.0164     0.1522     0.0361     1          0.9214    
1380.125   0.0474     0.0489     0.1542     0.0474     1          0.8968    
1380.25    0.0513     0.0672     0.155      0.0513     1          0.8883    
1380.375   0.0558     0.0941     0.1558     0.0558     1          0.8785    
1380.5     0.0625     0.1486     0.1572     0.0625     1          0.8638    
1380.625   0.0699     0.2313     0.1585     0.0699     1          0.8478    
1380.75    0.0727     0.2717     0.1592     0.0727     1          0.8416    
1380.875   0.0563     0.0974     0.1559     0.0563     1          0.8774    
1381       0.0424     0.0314     0.1534     0.0424     1          0.9076    
1381.125   0.0298     0.0077     0.1511     0.0298     1          0.9351    
1381.25    0.0197     0.0015     0.1493     0.0197     1          0.9571    
1381.375   0.0132     0.0003     0.1482     0.0132     1          0.9712    
1381.5     0.0087     0.0001000  0.1475     0.0087     1          0.9811    
1381.625   0.0051     0          0.1469     0.0051     1          0.9889    
1381.75    0.0043     0          0.1468     0.0043     1          0.9906    
1381.875   0.0105     0.0001000  0.1478     0.0105     1          0.9772    
1382       0.0264     0.0047     0.1506     0.0264     1          0.9425    
1382.125   0.0526     0.0743     0.1554     0.0526     1          0.8854    
1382.25    0.083      0.4601     0.1613     0.083      1          0.8193    
1382.375   0.1072     1.2835     0.1664     0.1072     1          0.7665    
1382.5     0.1258     2.4339     0.1706     0.1258     1          0.7259    
1382.625   0.1348     3.2101     0.1727     0.1348     1          0.7063    
1382.75    0.1296     2.7438     0.1715     0.1296     1          0.7176    
1382.875   0.1063     1.2397     0.1663     0.1063     1          0.7685    
1383       0.084      0.4832     0.1616     0.084      1          0.8171    
1383.125   0.0744     0.2974     0.1597     0.0744     1          0.838     
1383.25    0.0737     0.2863     0.1596     0.0737     1          0.8395    
1383.375   0.0795     0.3887     0.1608     0.0795     1          0.8267    
1383.5     0.0904     0.6477     0.163      0.0904     1          0.8032    
1383.625   0.1009     1.0066     0.1652     0.1009     1          0.7802    
1383.75    0.1109     1.4691     0.1674     0.1109     1          0.7584    
1383.875   0.1046     1.1642     0.1661     0.1046     1          0.7721    
1384       0.0868     0.5503     0.1623     0.0868     1          0.811     
1384.125   0.0638     0.1604     0.1577     0.0638     1          0.8611    
1384.25    0.0382     0.0207     0.1529     0.0382     1          0.9168    
1384.375   0.024      0.0032     0.1504     0.024      1          0.9477    
1384.5     0.0172     0.0009     0.1492     0.0172     1          0.9624    
1384.625   0.016      0.0006     0.149      0.016      1          0.9651    
1384.75    0.0183     0.0012     0.1495     0.0185     1          0.9597    
1384.875   0.0214     0.0026     0.1501     0.0223     1          0.9513    
1385       0.0234     0.0029     0.1503     0.0234     1          0.9491    
1385.125   0.0163     0.0007     0.1488     0.0163     1          0.9645    
1385.25    0.0086     0.0001000  0.1477     0.0086     1          0.9813    
1385.375   0.0029     0          0.1469     0.0029     1          0.9936    
1385.5     0.0003     0          0.1465     0.0003     1          0.9994    
1385.625   0.0003     0          0.1465     0.0003     1          0.9994    
1385.75    0.0017     0          0.1468     0.0017     1          0.9963    
1385.875   0.0049     0          0.1472     0.0049     1          0.9894    
1386       0.0105     0.0001000  0.148      0.0105     1          0.9772    
1386.125   0.0193     0.0013     0.1493     0.0193     1          0.958     
1386.25    0.0323     0.0106     0.1512     0.0323     1          0.9297    
1386.375   0.0522     0.0723     0.1542     0.0522     1          0.8862    
1386.5     0.0992     0.9388     0.1619     0.0992     1          0.784     
1386.625   0.1497     4.8753     0.171      0.1497     1          0.674     
1386.75    0.1801     10.2224    0.1801     0.1801     1          0.575     
1386.875   0.1867     11.8066    0.1867     0.1867     1          0.5094    
1387       0.1876     12.0227    0.1876     0.1876     1          0.5014    
1387.125   0.1814     10.5144    0.1814     0.1814     1          0.5621    
1387.25    0.1658     7.3376     0.1742     0.1658     1          0.6389    
1387.375   0.1228     2.2086     0.1661     0.1228     1          0.7325    
1387.5     0.0845     0.4942     0.1595     0.0845     1          0.816     
1387.625   0.06       0.1257     0.1556     0.06       1          0.8693    
1387.75    0.0417     0.0295     0.1527     0.0417     1          0.9091    
1387.875   0.0293     0.0072     0.1509     0.0293     1          0.9362    
1388       0.0217     0.0022     0.1498     0.0217     1          0.9528    
1388.125   0.0171     0.0008     0.1492     0.0171     1          0.9628    
1388.25    0.0147     0.0005     0.1488     0.0147     1          0.9679    
1388.375   0.0147     0.0005     0.1488     0.0148     1          0.9677    
1388.5     0.017      0.0011     0.1493     0.0179     1          0.961     
1388.625   0.0203     0.0027     0.1499     0.0221     1          0.952     
1388.75    0.023      0.0052     0.1504     0.0256     1          0.9441    
1388.875   0.0245     0.0074     0.1507     0.0277     1          0.9396    
1389       0.0241     0.007      0.1507     0.0274     1          0.9404    
1389.125   0.0213     0.0036     0.1501     0.0235     1          0.9488    
1389.25    0.0174     0.0014     0.1495     0.0187     1          0.9593    
1389.375   0.0143     0.0006     0.1489     0.0151     1          0.9671    
1389.5     0.0125     0.0003     0.1487     0.0131     1          0.9715    
1389.625   0.0116     0.0002     0.1485     0.0123     1          0.9733    
1389.75    0.0114     0.0002     0.1485     0.0122     1          0.9734    
1389.875   0.0122     0.0003     0.1487     0.0132     1          0.9713    
