~Version
 VERS              .         2.0                           : CWLS LOG ASCII STANDARD - VERSION 2.0
 WRAP              .         NO                            : ONE LINE PER DEPTH STEP
 DLM               .         SPACE                         : DELIMITING CHARACTER(SPACE TAB OR COMMA)
~Well Information
#_______________________________________________________________________________
#
#PARAMETER_NAME    .UNIT     VALUE                         : DESCRIPTION
#_______________________________________________________________________________
STRT               .M        25                            : First reference value
STOP               .M        3440                          : Last reference value
STEP               .M        0.125                         : Step increment
NULL               .         -9999                         : Missing value
COMP               .                                       : Company
WELL               .         trial-1                       : Well name
FLD                .         trial                         : Field
LOC                .         UNKNOWN                       : Location
CNTY               .                                       : County
STAT               .                                       : State
CTRY               .         MEXICO                        : Country
SRVC               .         UNKNOWN                       : Service Company
DATE               .         UNKNOWN                       : Date
UWI                .         20570423                      : Unique Well ID
YCOORD             .        				               : SURFACE Y
LON                .        				               : LONGITUDE
XCOORD             .        				               : SURFACE X
LAT                .        				               : LATITUDE
ELEV_TYPE          .         KB                            : ELEV TYPE
ELEV               .M        7.7600                        : SURFACE ELEV
group              .         trial                       : 
ORIGINALWELLNAME   .         trial-1                     : 
~Parameter Information Block
#_______________________________________________________________________________
#
#PARAMETER_NAME    .UNIT     VALUE                         : DESCRIPTION
#_______________________________________________________________________________
SET                .         Evaluacion_Final_OW           : 
TLFamily_PhiDss_2013 .         Array Resistivity             : 
TLFamily_BVW_2013  .         Bulk Fluid Volume             : 
TLFamily_K_Tixier  .         Permeability                  : 
TLFamily_PhiE_2013 .         Array Resistivity             : 
TLFamily_DEPTH     .         Measured Depth                : 
TLFamily_SwSiman_2013 .         Water Saturation              : 
TLFamily_VCL       .         Clay Volume                   : 
~Curve Information
#_______________________________________________________________________________
#
#LOGNAME           .UNIT     LOG_ID                        : DESCRIPTION
#_______________________________________________________________________________
DEPT              .M                                      : Measured Depth 
BVW_2013           .v/v                                    : v1 
K_Tixier           .mD                                     : v3 
PhiDss_2013        .v/v                                    : v5 
PhiE_2013          .v/v                                    : v4 
SwSiman_2013       .v/v                                    : v2 
VCL                .v/v                                    : v1 
~Ascii
# ...
1221       0.2353     29.7564    0.2353     0.2353     1          0.2545    
1221.125   0.2347     29.451     0.2347     0.2347     1          0.2577    
1221.25    0.2348     29.5424    0.2348     0.2348     1          0.2569    
1221.375   0.2356     29.9408    0.2356     0.2356     1          0.2528    
1221.5     0.2364     30.3122    0.2364     0.2364     1          0.249     
1221.625   0.2347     29.4814    0.2347     0.2347     1          0.2574    
1221.75    0.228      26.2443    0.228      0.228      1          0.2941    
1221.875   0.21       18.8874    0.21       0.21       1          0.4036    
1222       0.1898     12.608     0.1898     0.1898     1          0.5506    
1222.125   0.1499     4.9095     0.1739     0.1499     1          0.6908    
1222.25    0.1011     1.0138     0.164      0.1011     1          0.7916    
1222.375   0.0969     0.8996     0.1633     0.0977     1          0.7985    
1222.5     0.0913     1.3209     0.1642     0.1021     1          0.7894    
1222.625   0.0882     2.0968     0.1655     0.109      1          0.7752    
1222.75    0.081      2.2599     0.1652     0.1073     1          0.7788    
1222.875   0.0654     1.11       0.1617     0.0888     1          0.817     
1223       0.0475     0.3164     0.1573     0.0647     1          0.8665    
1223.125   0.0342     0.0699     0.154      0.0451     1          0.907     
1223.25    0.0231     0.0121     0.1514     0.0295     1          0.9391    
1223.375   0.0148     0.0018     0.1496     0.0185     1          0.9618    
1223.5     0.0099     0.0003     0.1486     0.0121     1          0.975     
1223.625   0.0085     0.0001000  0.1483     0.0102     1          0.979     
1223.75    0.0129     0.0006     0.149      0.0148     1          0.9694    
1223.875   0.0223     0.0037     0.1504     0.0239     1          0.9506    
1224       0.04       0.0248     0.153      0.04       1          0.9175    
1224.125   0.0623     0.1459     0.1568     0.0623     1          0.8716    
1224.25    0.0892     0.6136     0.1616     0.0892     1          0.8162    
1224.375   0.1208     2.0694     0.1677     0.1208     1          0.7509    
1224.5     0.1564     5.8162     0.1751     0.1564     1          0.6775    
1224.625   0.1838     11.0879    0.1838     0.1838     1          0.5987    
1224.75    0.194      13.7563    0.194      0.194      1          0.5157    
1224.875   0.2069     17.7997    0.2069     0.2069     1          0.422     
1225       0.224      24.4504    0.224      0.224      1          0.3148    
1225.125   0.2286     26.5244    0.2286     0.2286     1          0.2885    
1225.25    0.2309     27.6095    0.2309     0.2309     1          0.2756    
1225.375   0.2336     28.9071    0.2336     0.2336     1          0.261     
1225.5     0.2368     30.5616    0.2368     0.2368     1          0.2435    
1225.625   0.2402     32.3514    0.2402     0.2402     1          0.2261    
1225.75    0.2426     33.6435    0.2426     0.2426     1          0.214     
1225.875   0.2421     33.3419    0.2421     0.2421     1          0.2167    
1226       0.2412     32.8769    0.2412     0.2412     1          0.2206    
1226.125   0.2404     32.4167    0.2404     0.2404     1          0.2248    
1226.25    0.2397     32.0586    0.2397     0.2397     1          0.2278    
1226.375   0.2396     32.0262    0.2396     0.2396     1          0.2279    
1226.5     0.241      32.7779    0.241      0.241      1          0.2209    
1226.625   0.2434     34.0827    0.2434     0.2434     1          0.2089    
1226.75    0.2459     35.496     0.2459     0.2459     1          0.1968    
1226.875   0.2492     37.4603    0.2492     0.2492     1          0.1807    
1227       0.2537     40.2305    0.2537     0.2537     1          0.1599    
1227.125   0.2577     42.8283    0.2577     0.2577     1          0.1418    
1227.25    0.2578     42.909     0.2578     0.2578     1          0.1412    
1227.375   0.2575     42.6675    0.2575     0.2575     1          0.1427    
1227.5     0.2569     42.307     0.2569     0.2569     1          0.1447    
1227.625   0.2567     42.1874    0.2567     0.2567     1          0.1454    
1227.75    0.2572     42.4669    0.2572     0.2572     1          0.1434    
1227.875   0.258      43.0302    0.258      0.258      1          0.1394    
1228       0.2593     43.8856    0.2593     0.2593     1          0.1336    
1228.125   0.2581     43.1111    0.2581     0.2581     1          0.1385    
1228.25    0.2543     40.6163    0.2543     0.2543     1          0.1553    
1228.375   0.2493     37.4968    0.2493     0.2493     1          0.1782    
1228.5     0.2456     35.3212    0.2456     0.2456     1          0.1956    
1228.625   0.2417     33.1421    0.2417     0.2417     1          0.2144    
1228.75    0.2385     31.4469    0.2385     0.2385     1          0.23      
1228.875   0.2361     30.157     0.2361     0.2361     1          0.2427    
1229       0.2342     29.2386    0.2342     0.2342     1          0.2521    
1229.125   0.2332     28.7276    0.2332     0.2332     1          0.2572    
1229.25    0.2336     28.9372    0.2336     0.2336     1          0.2547    
1229.375   0.2348     29.5424    0.2348     0.2348     1          0.2481    
1229.5     0.2345     29.3902    0.2345     0.2345     1          0.2497    
1229.625   0.2318     28.0175    0.2318     0.2318     1          0.2645    
1229.75    0.2278     26.1606    0.2278     0.2278     1          0.2857    
1229.875   0.2257     25.1998    0.2257     0.2257     1          0.2978    
1230       0.2245     24.6628    0.2245     0.2245     1          0.3046    
1230.125   0.2228     23.9255    0.2228     0.2228     1          0.3143    
1230.25    0.2197     22.6251    0.2197     0.2197     1          0.3324    
1230.375   0.2152     20.81      0.2152     0.2152     1          0.3601    
1230.5     0.2096     18.7569    0.2096     0.2096     1          0.3954    
1230.625   0.204      16.8196    0.204      0.204      1          0.4333    
1230.75    0.1989     15.2024    0.1989     0.1989     1          0.4697    
1230.875   0.1967     14.5463    0.1967     0.1967     1          0.4858    
1231       0.1953     14.1384    0.1953     0.1953     1          0.4963    
1231.125   0.1933     13.5682    0.1933     0.1933     1          0.5115    
1231.25    0.1907     12.8513    0.1907     0.1907     1          0.5317    
1231.375   0.1922     13.2478    0.1922     0.1922     1          0.5199    
1231.5     0.2014     15.9765    0.2014     0.2014     1          0.4505    
1231.625   0.2096     18.7352    0.2096     0.2096     1          0.3941    
1231.75    0.2161     21.1877    0.2161     0.2161     1          0.3521    
1231.875   0.2196     22.5752    0.2196     0.2196     1          0.3306    
1232       0.2125     19.8199    0.2125     0.2125     1          0.374     
1232.125   0.2065     17.6542    0.2065     0.2065     1          0.4142    
1232.25    0.2012     15.8997    0.2012     0.2012     1          0.4512    
1232.375   0.1976     14.8171    0.1976     0.1976     1          0.4769    
1232.5     0.1958     14.2793    0.1958     0.1958     1          0.49      
1232.625   0.1956     14.2263    0.1956     0.1956     1          0.4912    
1232.75    0.1987     15.1284    0.1987     0.1987     1          0.4684    
1232.875   0.2027     16.3842    0.2027     0.2027     1          0.4396    
1233       0.1973     14.7264    0.1973     0.1973     1          0.4781    
1233.125   0.1893     12.4797    0.1893     0.1893     1          0.5399    
1233.25    0.1836     11.0295    0.1836     0.1836     1          0.5878    
1233.375   0.1792     10.0041    0.1792     0.1792     1          0.6271    
1233.5     0.1707     8.2549     0.1768     0.1707     1          0.6479    
1233.625   0.1855     11.488     0.1855     0.1855     1          0.5714    
1233.75    0.1989     15.2024    0.1989     0.1989     1          0.4651    
1233.875   0.2128     19.9105    0.2128     0.2128     1          0.3696    
