~Version
 VERS              .         2.0                           : CWLS LOG ASCII STANDARD - VERSION 2.0
 WRAP              .         NO                            : ONE LINE PER DEPTH STEP
 DLM               .         SPACE                         : DELIMITING CHARACTER(SPACE TAB OR COMMA)
~Well Information
#_______________________________________________________________________________
#
#PARAMETER_NAME    .UNIT     VALUE                         : DESCRIPTION
#_______________________________________________________________________________
STRT               .M        25                            : First reference value
STOP               .M        3440                          : Last reference value
STEP               .M        0.125                         : Step increment
NULL               .         -9999                         : Missing value
COMP               .                                       : Company
WELL               .         trial-1                       : Well name
FLD                .         trial                         : Field
LOC                .         UNKNOWN                       : Location
CNTY               .                                       : County
STAT               .                                       : State
CTRY               .         MEXICO                        : Country
SRVC               .         UNKNOWN                       : Service Company
DATE               .         UNKNOWN                       : Date
UWI                .         20570423                      : Unique Well ID
YCOORD             .        				               : SURFACE Y
LON                .        				               : LONGITUDE
XCOORD             .        				               : SURFACE X
LAT                .        				               : LATITUDE
ELEV_TYPE          .         KB                            : ELEV TYPE
ELEV               .M        7.7600                        : SURFACE ELEV
group              .         trial                       : 
ORIGINALWELLNAME   .         trial-1                     : 
~Parameter Information Block
#_______________________________________________________________________________
#
#PARAMETER_NAME    .UNIT     VALUE                         : DESCRIPTION
#_______________________________________________________________________________
SET                .         Evaluacion_Final_OW           : 
TLFamily_PhiDss_2013 .         Array Resistivity             : 
TLFamily_BVW_2013  .         Bulk Fluid Volume             : 
TLFamily_K_Tixier  .         Permeability                  : 
TLFamily_PhiE_2013 .         Array Resistivity             : 
TLFamily_DEPTH     .         Measured Depth                : 
TLFamily_SwSiman_2013 .         Water Saturation              : 
TLFamily_VCL       .         Clay Volume                   : 
~Curve Information
#_______________________________________________________________________________
#
#LOGNAME           .UNIT     LOG_ID                        : DESCRIPTION
#_______________________________________________________________________________
DEPT              .M                                      : Measured Depth 
BVW_2013           .v/v                                    : v1 
K_Tixier           .mD                                     : v3 
PhiDss_2013        .v/v                                    : v5 
PhiE_2013          .v/v                                    : v4 
SwSiman_2013       .v/v                                    : v2 
VCL                .v/v                                    : v1 
~Ascii
# ...
1299       0.2355     29.8793    0.2355     0.2355     1          0.2032    
1299.125   0.2349     29.5729    0.2349     0.2349     1          0.2065    
1299.25    0.235      29.6339    0.235      0.235      1          0.2057    
1299.375   0.2359     30.0951    0.2359     0.2359     1          0.2009    
1299.5     0.2378     31.0336    0.2378     0.2378     1          0.1915    
1299.625   0.2399     32.156     0.2399     0.2399     1          0.1807    
1299.75    0.2413     32.943     0.2413     0.2413     1          0.1734    
1299.875   0.2419     33.2419    0.2419     0.2419     1          0.1708    
1300       0.2415     33.0093    0.2415     0.2415     1          0.1728    
1300.125   0.2402     32.3514    0.2402     0.2402     1          0.1788    
1300.25    0.2202     33.4559    0.2347     0.2347     0.9382     0.2076    
1300.375   0.2206     31.3162    0.2322     0.2322     0.9498     0.2204    
1300.5     0.2346     29.5942    0.2348     0.2348     0.9991     0.2065    
1300.625   0.2407     32.5806    0.2407     0.2407     1          0.1765    
1300.75    0.2459     35.496     0.2459     0.2459     1          0.1509    
1300.875   0.2478     36.6291    0.2478     0.2478     1          0.1419    
1301       0.2425     33.6099    0.2425     0.2425     1          0.1671    
1301.125   0.2375     30.9072    0.2375     0.2375     1          0.1925    
1301.25    0.2331     28.6679    0.2331     0.2331     1          0.2158    
1301.375   0.2291     26.7501    0.2291     0.2291     1          0.2377    
1301.5     0.2257     25.1998    0.2257     0.2257     1          0.2566    
1301.625   0.2231     24.0559    0.2231     0.2231     1          0.2716    
1301.75    0.2228     25.0443    0.2245     0.2245     0.9924     0.2634    
1301.875   0.2301     27.2346    0.2301     0.2301     1          0.2319    
1302       0.2372     30.7498    0.2372     0.2372     1          0.1942    
1302.125   0.2418     33.2086    0.2418     0.2418     1          0.1707    
1302.25    0.2421     33.3754    0.2421     0.2421     1          0.1693    
1302.375   0.2387     31.543     0.2387     0.2387     1          0.1862    
1302.5     0.2338     29.0274    0.2338     0.2338     1          0.2118    
1302.625   0.2282     26.356     0.2282     0.2282     1          0.242     
1302.75    0.2229     23.9776    0.2229     0.2229     1          0.2727    
1302.875   0.2182     22.0318    0.2182     0.2182     1          0.3002    
1303       0.2141     20.3912    0.2141     0.2141     1          0.3265    
1303.125   0.2108     19.1945    0.2108     0.2108     1          0.3471    
1303.25    0.2126     19.8425    0.2126     0.2126     1          0.3357    
1303.375   0.2176     21.7881    0.2176     0.2176     1          0.3041    
1303.5     0.223      24.0037    0.223      0.223      1          0.2721    
1303.625   0.227      25.8006    0.227      0.227      1          0.2489    
1303.75    0.2272     25.8558    0.2272     0.2272     1          0.2481    
1303.875   0.2259     25.3083    0.2259     0.2259     1          0.255     
1304       0.2236     24.2921    0.2236     0.2236     1          0.2681    
1304.125   0.2208     23.0778    0.2208     0.2208     1          0.2848    
1304.25    0.2179     21.8854    0.2179     0.2179     1          0.3023    
1304.375   0.2148     20.693     0.2148     0.2148     1          0.321     
1304.5     0.2107     19.1283    0.2107     0.2107     1          0.3481    
1304.625   0.2068     17.758     0.2068     0.2068     1          0.3739    
1304.75    0.1953     14.1384    0.1953     0.1953     1          0.456     
1304.875   0.1771     10.0074    0.1785     0.1785     0.9924     0.5966    
1305       0.1585     6.1333     0.1705     0.1585     1          0.6731    
1305.125   0.1351     3.2324     0.1658     0.1351     1          0.7215    
1305.25    0.1174     1.8438     0.1624     0.1174     1          0.758     
1305.375   0.1043     1.1482     0.1599     0.1043     1          0.785     
1305.5     0.095      0.7913     0.1583     0.095      1          0.8041    
1305.625   0.0891     0.6132     0.1573     0.0891     1          0.8162    
1305.75    0.0856     0.5214     0.1566     0.0856     1          0.8235    
1305.875   0.0884     0.5923     0.1571     0.0884     1          0.8178    
1306       0.0945     0.7734     0.1582     0.0945     1          0.8052    
1306.125   0.1025     1.0724     0.1596     0.1025     1          0.7886    
1306.25    0.1128     1.6636     0.1617     0.1139     0.9908     0.7652    
1306.375   0.1252     3.4105     0.1653     0.1329     0.9424     0.726     
1306.5     0.1313     4.6666     0.1672     0.1422     0.923      0.7067    
1306.625   0.135      5.5368     0.1682     0.1477     0.9139     0.6954    
1306.75    0.1372     5.9851     0.1688     0.1505     0.912      0.6898    
1306.875   0.1381     6.1193     0.169      0.1514     0.9126     0.6879    
1307       0.137      6.0288     0.1688     0.1506     0.91       0.6895    
1307.125   0.1308     5.4974     0.1679     0.146      0.8959     0.699     
1307.25    0.1226     4.3766     0.1662     0.1375     0.8911     0.7164    
1307.375   0.1148     3.486      0.1647     0.1296     0.886      0.7329    
1307.5     0.1078     2.8351     0.1633     0.1226     0.8792     0.7473    
1307.625   0.1018     2.3737     0.1622     0.1168     0.8719     0.7593    
1307.75    0.0974     2.0714     0.1615     0.1125     0.8662     0.7681    
1307.875   0.0968     2.0659     0.1614     0.1122     0.8631     0.7687    
1308       0.1        2.6071     0.1624     0.1179     0.8483     0.7569    
1308.125   0.104      3.3899     0.1638     0.1248     0.8334     0.7427    
1308.25    0.1082     4.1586     0.1649     0.1308     0.8269     0.7303    
1308.375   0.1128     4.729      0.1658     0.1355     0.8325     0.7205    
1308.5     0.1182     5.2578     0.1667     0.1401     0.8438     0.7111    
1308.625   0.1228     5.9946     0.1677     0.145      0.8466     0.701     
1308.75    0.1259     7.12       0.1688     0.1505     0.8368     0.6896    
1308.875   0.1253     7.588      0.169      0.1519     0.8249     0.6869    
1309       0.1204     6.6882     0.168      0.1468     0.8207     0.6974    
1309.125   0.113      4.8936     0.1659     0.1364     0.8285     0.7188    
1309.25    0.1072     3.7973     0.1644     0.1284     0.8343     0.7352    
1309.375   0.1027     3.1133     0.1633     0.1225     0.8384     0.7474    
1309.5     0.1004     2.6554     0.1625     0.1184     0.8477     0.7559    
1309.625   0.1013     2.5947     0.1625     0.1183     0.856      0.7561    
1309.75    0.1062     3.1984     0.1636     0.1245     0.8536     0.7434    
1309.875   0.1148     5.0974     0.1662     0.1381     0.8319     0.7154    
1310       0.1247     9.6269     0.1702     0.1578     0.7905     0.6747    
1310.125   0.1323     15.4215    0.1741     0.1741     0.7603     0.6369    
1310.25    0.1367     16.2274    0.1775     0.1775     0.7704     0.6051    
1310.375   0.1418     16.5869    0.1803     0.1803     0.7866     0.5794    
1310.5     0.1468     16.7696    0.1827     0.1827     0.8035     0.5581    
1310.625   0.152      16.7439    0.1848     0.1848     0.8224     0.5403    
1310.75    0.1553     15.5932    0.1839     0.1839     0.8444     0.5475    
1310.875   0.1547     13.2613    0.1788     0.1788     0.865      0.593     
1311       0.1499     9.9661     0.1725     0.1687     0.8886     0.6521    
1311.125   0.1369     4.6087     0.1674     0.144      0.9513     0.7032    
1311.25    0.1223     2.427      0.1636     0.1246     0.9815     0.7432    
1311.375   0.1057     1.4215     0.1607     0.1086     0.974      0.7762    
1311.5     0.0884     0.71       0.1575     0.0911     0.9702     0.8122    
1311.625   0.0721     0.3034     0.1545     0.0739     0.976      0.8477    
1311.75    0.0589     0.12       0.1521     0.0592     0.9957     0.878     
1311.875   0.0487     0.0546     0.1504     0.0487     1          0.8996    
