~Version
 VERS              .         2.0                           : CWLS LOG ASCII STANDARD - VERSION 2.0
 WRAP              .         NO                            : ONE LINE PER DEPTH STEP
 DLM               .         SPACE                         : DELIMITING CHARACTER(SPACE TAB OR COMMA)
~Well Information
#_______________________________________________________________________________
#
#PARAMETER_NAME    .UNIT     VALUE                         : DESCRIPTION
#_______________________________________________________________________________
STRT               .M        25                            : First reference value
STOP               .M        3440                          : Last reference value
STEP               .M        0.125                         : Step increment
NULL               .         -9999                         : Missing value
COMP               .                                       : Company
WELL               .         trial-1                       : Well name
FLD                .         trial                         : Field
LOC                .         UNKNOWN                       : Location
CNTY               .                                       : County
STAT               .                                       : State
CTRY               .         MEXICO                        : Country
SRVC               .         UNKNOWN                       : Service Company
DATE               .         UNKNOWN                       : Date
UWI                .         20570423                      : Unique Well ID
YCOORD             .        				               : SURFACE Y
LON                .        				               : LONGITUDE
XCOORD             .        				               : SURFACE X
LAT                .        				               : LATITUDE
ELEV_TYPE          .         KB                            : ELEV TYPE
ELEV               .M        7.7600                        : SURFACE ELEV
group              .         trial                       : 
ORIGINALWELLNAME   .         trial-1                     : 
~Parameter Information Block
#_______________________________________________________________________________
#
#PARAMETER_NAME    .UNIT     VALUE                         : DESCRIPTION
#_______________________________________________________________________________
SET                .         Evaluacion_Final_OW           : 
TLFamily_PhiDss_2013 .         Array Resistivity             : 
TLFamily_BVW_2013  .         Bulk Fluid Volume             : 
TLFamily_K_Tixier  .         Permeability                  : 
TLFamily_PhiE_2013 .         Array Resistivity             : 
TLFamily_DEPTH     .         Measured Depth                : 
TLFamily_SwSiman_2013 .         Water Saturation              : 
TLFamily_VCL       .         Clay Volume                   : 
~Curve Information
#_______________________________________________________________________________
#
#LOGNAME           .UNIT     LOG_ID                        : DESCRIPTION
#_______________________________________________________________________________
DEPT              .M                                      : Measured Depth 
BVW_2013           .v/v                                    : v1 
K_Tixier           .mD                                     : v3 
PhiDss_2013        .v/v                                    : v5 
PhiE_2013          .v/v                                    : v4 
SwSiman_2013       .v/v                                    : v2 
VCL                .v/v                                    : v1 
~Ascii
# ...
1715       0.0559     0.0946     0.1532     0.0559     1          0.9377    
1715.125   0.0441     0.0366     0.1514     0.0441     1          0.9634    
1715.25    0.0382     0.0207     0.1505     0.0382     1          0.9761    
1715.375   0.0347     0.0178     0.1502     0.0361     0.9626     0.9808    
1715.5     0.0318     0.0169     0.1499     0.0347     0.9151     0.9838    
1715.625   0.0299     0.017      0.1499     0.0341     0.8782     0.9852    
1715.75    0.0291     0.0181     0.1498     0.0341     0.8526     0.9851    
1715.875   0.0287     0.0188     0.1498     0.0342     0.8392     0.985     
1716       0.0286     0.0175     0.1498     0.0337     0.8487     0.9859    
1716.125   0.03       0.0168     0.1498     0.034      0.8812     0.9853    
1716.25    0.0319     0.0181     0.1499     0.0352     0.9061     0.9828    
1716.375   0.033      0.0209     0.1501     0.0364     0.9044     0.98      
1716.5     0.0325     0.0239     0.1502     0.0371     0.8775     0.9786    
1716.625   0.0318     0.0248     0.1502     0.037      0.8586     0.9787    
1716.75    0.0328     0.0267     0.1503     0.0379     0.8656     0.9769    
1716.875   0.0353     0.0323     0.1506     0.0401     0.881      0.9721    
1717       0.0376     0.0362     0.1508     0.0417     0.9019     0.9685    
1717.125   0.0375     0.031      0.1507     0.0406     0.9229     0.971     
1717.25    0.0328     0.017      0.1498     0.0351     0.9335     0.9829    
1717.375   0.0288     0.0109     0.1493     0.0312     0.9228     0.9914    
1717.5     0.0303     0.0141     0.1495     0.0332     0.9128     0.9871    
1717.625   0.0331     0.0223     0.1501     0.0369     0.8983     0.9791    
1717.75    0.0338     0.0282     0.1503     0.0386     0.8756     0.9753    
1717.875   0.0304     0.0238     0.1499     0.0362     0.839      0.9804    
1718       0.0244     0.0161     0.1493     0.0316     0.7742     0.9906    
1718.125   0.0232     0.0234     0.1495     0.033      0.7016     0.9875    
1718.25    0.025      0.0589     0.1504     0.0395     0.6324     0.905     
1718.375   0.0285     0.1891     0.1519     0.0501     0.5682     0.7972    
1718.5     0.0328     0.6244     0.1541     0.0641     0.512      0.7038    
1718.625   0.0377     1.9391     0.1567     0.0811     0.4654     0.6284    
1718.75    0.0436     5.8246     0.1602     0.1022     0.4267     0.5689    
1718.875   0.0599     41.9414    0.17       0.1579     0.3795     0.5195    
1719       0.0676     81.9714    0.1838     0.1838     0.3678     0.4692    
1719.125   0.0724     112.7777   0.1984     0.1984     0.3651     0.4271    
1719.25    0.0752     145.663    0.2096     0.2096     0.3586     0.3433    
1719.375   0.0752     169.9005   0.2151     0.2151     0.3498     0.3017    
1719.5     0.0744     183.581    0.217      0.217      0.3426     0.2878    
1719.625   0.0749     189.2857   0.2187     0.2187     0.3425     0.276     
1719.75    0.0774     184.0857   0.2201     0.2201     0.3517     0.2662    
1719.875   0.081      172.7874   0.221      0.221      0.3663     0.2595    
1720       0.0835     164.0042   0.2214     0.2214     0.3772     0.2567    
1720.125   0.0848     159.4174   0.2215     0.2215     0.383      0.2555    
1720.25    0.086      156.0805   0.2217     0.2217     0.3877     0.2544    
1720.375   0.0869     153.8479   0.222      0.222      0.3916     0.2519    
1720.5     0.0876     153.4846   0.2225     0.2225     0.3937     0.2487    
1720.625   0.0878     155.1918   0.223      0.223      0.3935     0.2446    
1720.75    0.0873     160.6683   0.2239     0.2239     0.3899     0.2384    
1720.875   0.0859     171.095    0.2251     0.2251     0.3817     0.2304    
1721       0.0854     179.2833   0.2264     0.2264     0.3771     0.2219    
1721.125   0.0861     181.9486   0.2276     0.2276     0.3784     0.2141    
1721.25    0.0877     179.8813   0.2285     0.2285     0.3838     0.2074    
1721.375   0.0892     177.6308   0.2293     0.2293     0.3889     0.2024    
1721.5     0.089      177.8997   0.2292     0.2292     0.3882     0.2027    
1721.625   0.0869     182.1224   0.2283     0.2283     0.3806     0.2084    
1721.75    0.0853     183.9641   0.2273     0.2273     0.3753     0.2151    
1721.875   0.0847     181.4902   0.2262     0.2262     0.3744     0.2214    
1722       0.0853     176.251    0.2256     0.2256     0.3779     0.2251    
1722.125   0.0867     171.7782   0.2259     0.2259     0.3838     0.2233    
1722.25    0.0872     179.3445   0.228      0.228      0.3825     0.2094    
1722.375   0.0876     190.1721   0.2305     0.2305     0.3798     0.1932    
1722.5     0.0884     198.3608   0.2329     0.2329     0.3796     0.1782    
1722.625   0.0897     201.7889   0.2347     0.2347     0.3822     0.1669    
1722.75    0.0913     200.3333   0.2358     0.2358     0.3872     0.1602    
1722.875   0.0931     194.2009   0.2361     0.2361     0.3943     0.158     
1723       0.0956     184.841    0.2363     0.2363     0.4048     0.157     
1723.125   0.0992     171.8445   0.2363     0.2363     0.4198     0.1565    
1723.25    0.1027     160.4333   0.2363     0.2363     0.4344     0.1563    
1723.375   0.105      153.4314   0.2363     0.2363     0.4443     0.1561    
1723.5     0.1057     151.3132   0.2363     0.2363     0.4474     0.1561    
1723.625   0.106      148.1886   0.2357     0.2357     0.4497     0.1594    
1723.75    0.1073     141.2602   0.2348     0.2348     0.4571     0.1647    
1723.875   0.1089     131.8344   0.2332     0.2332     0.4668     0.1743    
1724       0.1093     123.1098   0.2308     0.2308     0.4733     0.1889    
1724.125   0.1079     116.7835   0.2279     0.2279     0.4735     0.2077    
1724.25    0.1066     109.3585   0.2245     0.2245     0.4749     0.2295    
1724.375   0.1082     96.3283    0.2208     0.2208     0.4897     0.2538    
1724.5     0.1102     82.2515    0.2164     0.2164     0.509      0.2849    
1724.625   0.1116     69.3692    0.2113     0.2113     0.5281     0.3222    
1724.75    0.1116     57.1348    0.2045     0.2045     0.5455     0.3744    
1724.875   0.1101     44.7216    0.1955     0.1955     0.5633     0.4496    
1725       0.1108     36.3907    0.1893     0.1893     0.5852     0.5061    
1725.125   0.1858     30.5253    0.1858     0.1858     1          0.5389    
1725.25    0.1847     27.2938    0.1847     0.1847     1          0.5499    
1725.375   0.1849     26.167     0.1849     0.1849     1          0.5473    
1725.5     0.1855     26.6215    0.1855     0.1855     1          0.5417    
1725.625   0.1853     28.1655    0.1853     0.1853     1          0.5429    
1725.75    0.183      28.3942    0.183      0.183      1          0.5658    
1725.875   0.181      28.7233    0.181      0.181      1          0.5852    
1726       0.1831     31.0213    0.1831     0.1831     1          0.5642    
1726.125   0.1895     35.9228    0.1895     0.1895     1          0.5027    
1726.25    0.1981     43.0555    0.1981     0.1981     1          0.4257    
1726.375   0.2045     49.4168    0.2045     0.2045     1          0.3716    
1726.5     0.2095     54.364     0.2095     0.2095     1          0.3329    
1726.625   0.2139     58.2725    0.2139     0.2139     1          0.2995    
1726.75    0.2187     62.3749    0.2187     0.2187     1          0.2657    
1726.875   0.224      67.1948    0.224      0.224      1          0.2289    
1727       0.2298     72.1751    0.2298     0.2298     1          0.1914    
1727.125   0.2328     72.3248    0.2328     0.2328     1          0.1717    
1727.25    0.2353     73.3274    0.2353     0.2353     1          0.1568    
1727.375   0.2372     75.2138    0.2372     0.2372     1          0.1454    
1727.5     0.2387     77.7888    0.2387     0.2387     1          0.1361    
1727.625   0.2401     80.8881    0.2401     0.2401     1          0.1279    
1727.75    0.2412     83.988     0.2412     0.2412     1          0.1214    
1727.875   0.242      86.3335    0.242      0.242      1          0.1162    
